title	url_id	area	price	number_of_bedrooms	number_of_toilets	legal	lat	lon	district	province
Nhà biệt thự, liền kề tại Vinhomes Wonder City	pr42614924	96.0	16.8	5	3	1	21.096562274466994	105.71204689509746	Đan Phượng	Hà Nội
Nhà riêng tại đường Bồ Đề	pr41789075	80.0	13.2	3	3	2	21.0379724924051	105.871921608991	Long Biên	Hà Nội
Nhà riêng tại đường Yên Hòa	pr42566899	35.0	8.0	5	4	2	21.0232502264143	105.794804060888	Cầu Giấy	Hà Nội
Nhà riêng tại đường Nguyễn Chí Thanh	pr42522665	65.0	16.5	4	4	2	21.0210685056711	105.808493223334	Đống Đa	Hà Nội
Nhà biệt thự, liền kề tại Him Lam Thường Tín	pr42177890	80.0	11.0	6	6	2	20.8710734809205	105.862896065556	Thường Tín	Hà Nội
Shophouse, nhà phố thương mại tại Him Lam Thường Tín	pr41455530	81.0	15.0	5	6	2	20.8715607362953	105.862752231038	Thường Tín	Hà Nội
Nhà riêng tại đường Hồ Đắc Di	pr42657542	80.0	12.8	3	3	2	21.0120317980487	105.829219203335	Đống Đa	Hà Nội
Căn hộ chung cư tại Mulberry Lane	pr42620937	146.0	7.5	4	2	2	20.986585794806963	105.7856640972146	Hà Đông	Hà Nội
Nhà riêng tại đường Hoàng Quốc Việt	pr42654634	46.0	17.0	5	5	2	21.046267314581	105.799749577815	Cầu Giấy	Hà Nội
Căn hộ chung cư tại Viha Complex	pr41825566	97.0	9.2	3	3	1	20.9975177172086	105.804383780412	Thanh Xuân	Hà Nội
Nhà riêng tại đường Nguyễn Văn Cừ	pr42648565	35.0	12.5	3	4	2	21.0466207052601	105.877737462159	Long Biên	Hà Nội
Nhà biệt thự, liền kề tại The Eden Rose	pr42487238	82.5	21.5	4	5	2	20.96695746342724	105.81392058429589	Thanh Trì	Hà Nội
Nhà riêng tại đường Định Công Thượng	pr42122413	41.0	9.35	4	5	2	20.9828556907307	105.821261091206	Hoàng Mai	Hà Nội
Nhà biệt thự, liền kề tại phố Nguyễn Khiêm Ích	pr42620688	90.0	18.2	5	5	2	21.0136238623344	105.939517187216	Gia Lâm	Hà Nội
Nhà riêng tại đường Hoàng Hoa Thám	pr42491247	35.0	7.5	4	5	2	21.0420966892547	105.817917979681	Ba Đình	Hà Nội
Nhà riêng tại đường Đức Giang	pr42636367	35.0	8.5	3	5	2	21.0667741109018	105.891593915149	Long Biên	Hà Nội
Căn hộ chung cư tại Chung cư Đông Đô	pr42601783	94.7	7.25	2	2	2	21.0499501418457	105.794929428449	Cầu Giấy	Hà Nội
Căn hộ chung cư tại Iris Garden	pr41602447	135.0	7.6	3	2	2	21.0311622619629	105.760414123535	Nam Từ Liêm	Hà Nội
Nhà riêng tại đường Thụy Khuê	pr42608715	48.0	10.6	6	4	2	21.0426210118859	105.823921119266	Tây Hồ	Hà Nội
Nhà mặt phố tại đường Trần Đăng Ninh	pr34124071	42.0	14.0	8	5	2	21.0387557	105.7922448	Cầu Giấy	Hà Nội
Căn hộ chung cư tại Lumi Hanoi	pr41905789	136.0	10.55	4	3	1	21.0117948134741	105.735632766765	Nam Từ Liêm	Hà Nội
Nhà riêng tại đường Ô Cách	pr42612298	65.0	12.0	3	4	2	21.0600959191157	105.895881457151	Long Biên	Hà Nội
Nhà riêng tại đường Nguyễn Trãi	pr42575365	58.0	12.0	6	6	2	20.9728686916288	105.779048277027	Hà Đông	Hà Nội
Nhà riêng tại đường Khuất Duy Tiến	pr42584204	40.0	15.5	4	4	2	20.9952079683355	105.800250660682	Thanh Xuân	Hà Nội
Nhà riêng tại phố Hào Nam	pr42587804	50.0	8.0	3	4	2	21.027314179655	105.827778334746	Đống Đa	Hà Nội
Căn hộ chung cư tại Khu đô thị Mỹ Đình II	pr41684244	142.0	8.2	3	2	-1	21.0315856933594	105.768203735352	Nam Từ Liêm	Hà Nội
Căn hộ chung cư tại Sunshine Green Iconic	pr39959331	169.0	13.5	3	4	1	21.0407333374023	105.896560668945	Long Biên	Hà Nội
Nhà riêng tại đường Triều Khúc	pr42496920	50.0	14.0	5	6	2	20.9799524733521	105.80249454218	Thanh Trì	Hà Nội
Nhà riêng tại đường Hoàng Như Tiếp	pr42405284	50.0	9.1	4	4	2	21.0408433436199	105.877769329987	Long Biên	Hà Nội
Nhà riêng tại đường Phúc Lợi	pr41789866	117.0	19.0	6	5	-1	21.0388072186291	105.934620217152	Long Biên	Hà Nội
Nhà riêng tại phường Thịnh Liệt	pr42638174	70.0	17.8	6	6	2	20.9768093071434	105.847407838191	Hoàng Mai	Hà Nội
Căn hộ chung cư tại A10-A14 Nam Trung Yên	pr42316753	95.0	7.5	3	2	2	21.019292138136525	105.78781898027977	Cầu Giấy	Hà Nội
Nhà biệt thự, liền kề tại Khu đô thị Đại Kim	pr42303671	68.0	20.5	5	5	2	20.9725133882724	105.819882478659	Hoàng Mai	Hà Nội
Nhà riêng tại phố Trần Cung	pr42593970	85.0	17.0	6	5	2	21.0521132948133	105.788977399241	Bắc Từ Liêm	Hà Nội
Căn hộ chung cư tại N04B Ngoại Giao Đoàn	pr42575367	99.6	9.0	2	2	2	21.065461927910057	105.80150240096393	Bắc Từ Liêm	Hà Nội
Căn hộ chung cư tại Iris Garden	pr42475486	135.0	7.5	3	2	-1	21.0317805512488	105.760874220403	Nam Từ Liêm	Hà Nội
Nhà riêng tại đường Nguyễn Đình Hoàn	pr42503050	40.0	15.8	3	4	2	21.0429488435816	105.805067966484	Cầu Giấy	Hà Nội
Nhà riêng tại đường Đền Lừ	pr42376850	37.4	19.0	5	5	2	20.9849323099361	105.857868259932	Hoàng Mai	Hà Nội
Nhà riêng tại phố Nghĩa Dũng	pr42631781	43.0	8.8	4	4	2	21.0476583800261	105.847563497844	Ba Đình	Hà Nội
Căn hộ chung cư tại Sunshine Green Iconic	pr42602330	156.0	12.99	3	3	1	21.040780234182	105.895642894351	Long Biên	Hà Nội
Nhà riêng tại đường Ngọc Hà	pr42641757	58.0	15.49	5	5	2	21.0361022698592	105.831268885565	Ba Đình	Hà Nội
Nhà biệt thự, liền kề tại phường Thịnh Liệt	pr42624069	65.0	15.0	6	4	2	20.9770480046058	105.847117234431	Hoàng Mai	Hà Nội
Nhà riêng tại đường Nguyễn Văn Linh	pr42572171	50.0	11.6	4	4	2	21.0303577274462	105.914316912438	Long Biên	Hà Nội
Nhà riêng tại đường Tư Đình	pr42412337	86.0	14.5	1	1	2	21.0286785839772	105.883818452958	Long Biên	Hà Nội
Nhà biệt thự, liền kề tại Khu đô thị mới Tân Tây Đô	pr42617816	91.5	15.0	4	4	2	21.07437555021234	105.7004879836154	Đan Phượng	Hà Nội
Nhà riêng tại đường Nguyễn Khang	pr42645121	65.0	17.0	4	3	2	21.0273982212955	105.798263817835	Cầu Giấy	Hà Nội
Nhà riêng tại đường Nguyên Hồng	pr42642113	35.0	16.2	3	3	2	21.0159661528127	105.80962554928	Đống Đa	Hà Nội
Căn hộ chung cư tại Stellar Garden	pr38682281	100.0	7.0	3	2	1	20.9989471435547	105.804176330566	Thanh Xuân	Hà Nội
Nhà riêng tại đường Tô Hiệu	pr42363350	53.0	8.0	1	1	2	20.9665098182716	105.776573497107	Hà Đông	Hà Nội
Căn hộ chung cư tại N03-T1 Ngoại Giao Đoàn	pr40262777	96.6	8.3	3	2	2	21.0657653808594	105.798080444336	Bắc Từ Liêm	Hà Nội
Nhà riêng tại đường Nguyễn Văn Cừ	pr42373973	80.0	10.7	4	3	2	21.0438651326572	105.872356856801	Long Biên	Hà Nội
Nhà riêng tại đường Tô Vĩnh Diện	pr42541781	60.0	12.8	6	4	2	20.9996834868449	105.820895864678	Thanh Xuân	Hà Nội
Căn hộ chung cư tại Golden Park Tower	pr40942577	95.0	8.8	3	2	2	21.0268173217773	105.787666320801	Cầu Giấy	Hà Nội
Nhà riêng tại phố Thái Thịnh	pr42582415	51.0	11.9	4	3	2	21.010438679133	105.818860209413	Đống Đa	Hà Nội
Nhà riêng tại đường Dương Quảng Hàm	pr41311958	161.0	20.0	2	1	2	21.0350272181189	105.799759879248	Cầu Giấy	Hà Nội
Căn hộ chung cư tại Park Kiara	pr41141828	91.0	8.55	3	2	2	20.9673748016357	105.754013061523	Hà Đông	Hà Nội
Nhà biệt thự, liền kề tại Kiến Hưng Luxury	pr42616338	68.0	19.8	4	5	2	20.95238336041869	105.7856266533434	Hà Đông	Hà Nội
Nhà mặt phố tại đường Giang Văn Minh	pr42593504	24.0	17.5	4	4	2	21.0320132252062	105.826967238681	Ba Đình	Hà Nội
Nhà riêng tại đường Trường Chinh	pr41827127	69.0	13.8	4	4	2	20.9986509871809	105.837977710587	Đống Đa	Hà Nội
Nhà riêng tại phố Kim Mã	pr42359924	43.0	8.8	5	4	2	21.0317829429711	105.825408673663	Ba Đình	Hà Nội
Nhà riêng tại đường Hoàng Mai	pr42524634	32.0	8.2	5	5	2	20.9848644696041	105.843536117657	Hoàng Mai	Hà Nội
Căn hộ chung cư tại Việt Đức Complex	pr42625014	136.6	7.65	3	2	1	20.999669389354345	105.79956585165388	Thanh Xuân	Hà Nội
Nhà riêng tại đường Lê Quang Đạo	pr42524831	48.6	8.2	4	3	2	21.0122250493206	105.771034763789	Nam Từ Liêm	Hà Nội
Nhà biệt thự, liền kề tại Khu đô thị mới Văn Phú	pr40876825	82.0	20.2	5	5	2	20.95768256157765	105.76716471809476	Hà Đông	Hà Nội
Nhà mặt phố tại phường Đội Cấn	pr42589119	44.0	16.2	1	1	2	21.0347849076387	105.826217100137	Ba Đình	Hà Nội
Nhà mặt phố tại đường Minh Khai	pr42560263	65.0	14.0	3	3	2	20.9976111874569	105.866807523062	Hai Bà Trưng	Hà Nội
Nhà riêng tại phố Hào Nam	pr42576484	38.0	8.25	5	5	2	21.0273479500894	105.827779829454	Đống Đa	Hà Nội
Căn hộ chung cư tại Bamboo Airways Tower	pr42639616	96.0	7.1	2	2	2	21.03459304989164	105.79519302329555	Cầu Giấy	Hà Nội
Căn hộ chung cư tại Sunshine City	pr40151117	99.0	7.0	3	2	-1	21.08497391533869	105.79145086787376	Bắc Từ Liêm	Hà Nội
Nhà mặt phố tại phố Trần Quốc Hoàn	pr42657819	30.0	12.0	3	4	2	21.0412926217836	105.786601033847	Cầu Giấy	Hà Nội
Nhà riêng tại đường Lạc Long Quân	pr42621227	41.0	11.3	4	4	2	21.0769361118275	105.81433915724	Tây Hồ	Hà Nội
Nhà riêng tại phường Văn Quán	pr42022953	35.0	7.0	3	4	2	20.9761396701502	105.791358347675	Hà Đông	Hà Nội
Nhà riêng tại phường Phúc Xá	pr42655273	51.0	11.5	2	3	2	21.0454093061332	105.848058159316	Ba Đình	Hà Nội
Căn hộ chung cư tại Vinhomes Times City - Park Hill	pr42623921	100.0	9.3	3	2	2	20.99485782280275	105.86680825472727	Hai Bà Trưng	Hà Nội
Căn hộ chung cư tại The Nelson Private Residences	pr42601305	83.0	11.0	2	2	2	21.02081556011511	105.81889806893278	Ba Đình	Hà Nội
Nhà riêng tại đường Kim Ngưu	pr42605506	36.2	7.5	4	3	2	21.0049140452087	105.861331633824	Hai Bà Trưng	Hà Nội
Nhà riêng tại đường Bồ Đề	pr42420065	50.0	10.0	3	4	2	21.0382733909268	105.871899110914	Long Biên	Hà Nội
Nhà riêng tại đường Xuân Đỉnh	pr41497782	70.0	13.5	4	4	2	21.0710980414536	105.794350081688	Bắc Từ Liêm	Hà Nội
Nhà riêng tại phố Thái Hà	pr42578634	48.0	15.9	4	4	2	21.0128429263205	105.819921428941	Đống Đa	Hà Nội
Nhà riêng tại Khu đô thị mới Nghĩa Đô	pr42622878	40.0	13.0	4	4	2	21.050649908029936	105.791729424851	Bắc Từ Liêm	Hà Nội
Nhà riêng tại đường Trần Quang Diệu	pr42644232	55.0	14.0	4	3	2	21.0154960023045	105.824450308533	Đống Đa	Hà Nội
Nhà riêng tại đường Minh Khai	pr42572577	59.0	8.7	7	4	2	20.9950923829715	105.856751566625	Hai Bà Trưng	Hà Nội
Nhà biệt thự, liền kề tại Khai Sơn City	pr28296569	100.0	21.0	6	6	2	21.0525003896904	105.884362161138	Long Biên	Hà Nội
Căn hộ chung cư tại The Zei Mỹ Đình	pr41948310	93.0	7.5	2	2	2	21.034862303420145	105.7699732036904	Nam Từ Liêm	Hà Nội
Nhà biệt thự, liền kề tại Hồng Hà Tower	pr42652812	65.0	15.85	6	4	2	20.975198002996763	105.8559497888322	Hoàng Mai	Hà Nội
Nhà riêng tại Khu đô thị Mỗ Lao	pr42640886	37.0	9.5	3	4	2	20.98319575963497	105.78160585622796	Hà Đông	Hà Nội
Nhà riêng tại đường Đào Tấn	pr42627521	35.0	8.6	3	4	2	21.0323047597879	105.809146566413	Ba Đình	Hà Nội
Nhà riêng tại đường Nguyễn Chí Thanh	pr42637871	40.0	15.8	4	5	2	21.0206963542968	105.808531057825	Đống Đa	Hà Nội
Nhà riêng tại đường Trần Duy Hưng	pr42573613	41.0	8.3	3	4	2	21.0107112067191	105.7995970554	Cầu Giấy	Hà Nội
Căn hộ chung cư tại Golden Land	pr42609138	130.0	8.19	3	2	-1	20.99289275333338	105.80728526897104	Thanh Xuân	Hà Nội
Nhà riêng tại đường Xuân La	pr41498709	42.0	8.0	3	4	2	21.0646607257931	105.805663766503	Tây Hồ	Hà Nội
Nhà riêng tại phố Kim Mã	pr42639594	56.0	11.9	4	4	2	21.0318021296423	105.825075476489	Ba Đình	Hà Nội
Nhà riêng tại đường Phố Trạm	pr42506233	50.0	12.9	4	4	2	21.0261811999281	105.893188302914	Long Biên	Hà Nội
Nhà riêng tại phố Quan Nhân	pr42598368	26.0	7.99	3	4	2	21.0034894358862	105.810601454415	Thanh Xuân	Hà Nội
Nhà riêng tại đường Cổ Linh	pr42635653	50.0	13.5	4	4	2	21.0242490478138	105.902451216147	Long Biên	Hà Nội
Nhà riêng tại đường Lạc Long Quân	pr42466149	35.0	9.2	3	4	2	21.061260117618	105.809013089233	Tây Hồ	Hà Nội
Nhà mặt phố tại đường Tô Hiệu	pr42620060	55.0	21.0	5	3	2	20.9662414434248	105.777031668872	Hà Đông	Hà Nội
Nhà riêng tại phường Đại Mỗ	pr42615242	43.0	9.6	4	4	2	20.9941113187154	105.761145456281	Nam Từ Liêm	Hà Nội
Nhà riêng tại đường Trần Quang Diệu	pr42369693	61.0	20.5	6	6	2	21.0155569066966	105.824131736743	Đống Đa	Hà Nội
Căn hộ chung cư tại Eurowindow Multi Complex	pr41553488	120.0	8.5	3	2	2	21.011089324951172	105.7999038696289	Cầu Giấy	Hà Nội
Căn hộ chung cư tại Chung cư M5 Nguyễn Chí Thanh	pr42138541	149.0	9.3	3	2	2	21.0209899860415	105.80981166563215	Đống Đa	Hà Nội
Nhà riêng tại đường Lê Đức Thọ	pr42402602	70.0	12.5	4	3	2	21.0305635386789	105.769309593256	Nam Từ Liêm	Hà Nội
Nhà riêng tại đường Ô Chợ Dừa	pr42465601	35.0	12.1	3	4	2	21.0198418537465	105.827596951881	Đống Đa	Hà Nội
Căn hộ chung cư tại Mỹ Đình Pearl	pr42498815	94.0	7.3	3	2	2	21.012605448192232	105.767835029018	Nam Từ Liêm	Hà Nội
Nhà riêng tại đường Đội Cấn	pr42652211	42.0	9.0	4	3	2	21.0349422788287	105.823487633304	Ba Đình	Hà Nội
Nhà mặt phố tại đường Nguyễn Văn Cừ	pr42386115	42.0	12.9	4	6	2	21.0435597643429	105.872611251764	Long Biên	Hà Nội
Căn hộ chung cư tại Khu đô thị Yên Hòa	pr42512035	100.0	7.1	3	2	2	21.018690849777087	105.79521919443832	Cầu Giấy	Hà Nội
Nhà riêng tại đường Trường Chinh	pr42652989	42.0	18.3	4	4	2	20.9986432076404	105.83751853717	Đống Đa	Hà Nội
Nhà riêng tại phường Mễ Trì	pr42524876	58.0	14.3	5	4	2	21.0036941673466	105.78254003761	Nam Từ Liêm	Hà Nội
Nhà riêng tại phố Nguyễn Ngọc Vũ	pr40997005	62.0	7.2	4	4	2	21.0118023457069	105.808376002494	Cầu Giấy	Hà Nội
Nhà riêng tại đường Phạm Văn Đồng	pr42621951	37.0	10.3	3	4	2	21.0730661760943	105.785389469837	Bắc Từ Liêm	Hà Nội
Nhà riêng tại đường Bồ Đề	pr42576695	45.0	8.2	4	3	2	21.0379529690711	105.871535176263	Long Biên	Hà Nội
Căn hộ chung cư tại HC Golden City	pr42014197	148.5	10.5	4	2	-1	21.037187295443974	105.87306190985024	Long Biên	Hà Nội
Nhà riêng tại đường Nguyễn Văn Cừ	pr42596794	65.0	19.3	4	4	2	21.0436692271135	105.872717386854	Long Biên	Hà Nội
Căn hộ chung cư tại Capital Elite	pr42621879	114.0	12.5	3	2	2	21.018616014094267	105.7813952574202	Nam Từ Liêm	Hà Nội
Bán đất tại xã Thanh Xuân	pr42575218	109.0	7.085	1	1	2	21.2233570953419	105.76704316418	Sóc Sơn	Hà Nội
Nhà mặt phố tại đường Vân Canh	pr42455180	45.0	7.8	4	4	2	21.0357886337211	105.732922204824	Hoài Đức	Hà Nội
Căn hộ chung cư tại Times Tower Lê Văn Lương	pr42611605	107.0	8.5	3	2	2	21.0023396169304	105.80125942233616	Thanh Xuân	Hà Nội
Nhà biệt thự, liền kề tại Vinhomes Wonder City	pr42507611	88.0	17.0	5	5	2	21.096544866489022	105.71202793462903	Đan Phượng	Hà Nội
Nhà riêng tại phố Vũ Tông Phan	pr42652223	40.0	7.9	4	3	2	20.9980098651096	105.817255992007	Thanh Xuân	Hà Nội
Nhà riêng tại đường Quang Trung	pr42320920	45.0	11.4	6	4	2	20.9658667101875	105.767627287408	Hà Đông	Hà Nội
Nhà riêng tại phố Kim Mã	pr42643040	56.0	11.95	4	3	2	21.0319809956927	105.825579478225	Ba Đình	Hà Nội
Nhà riêng tại đường Tây Sơn	pr42599601	55.0	15.0	5	4	2	21.009745148872	105.824423136854	Đống Đa	Hà Nội
Căn hộ chung cư tại Hà Nội Paragon	pr42619273	138.0	8.5	3	2	1	21.031559061110972	105.7899932432634	Cầu Giấy	Hà Nội
Nhà riêng tại đường Tây Sơn	pr42621222	43.0	11.5	3	5	2	21.0046310071282	105.82164842011	Đống Đa	Hà Nội
Nhà biệt thự, liền kề tại Vinhomes Wonder City	pr42582024	96.0	15.0	5	3	1	21.096574509847308	105.711932885622	Đan Phượng	Hà Nội
Căn hộ chung cư tại N03-T1 Ngoại Giao Đoàn	pr42470392	95.0	8.15	3	2	-1	21.066106585122068	105.79825259985388	Bắc Từ Liêm	Hà Nội
Nhà biệt thự, liền kề tại Hồng Hà Tower	pr42321381	73.0	18.35	4	3	2	20.97495186744808	105.85621395817635	Hoàng Mai	Hà Nội
Nhà mặt phố tại đường Tống Duy Tân	pr42600683	45.0	20.0	2	1	2	21.0293803890603	105.843446133168	Hoàn Kiếm	Hà Nội
Nhà biệt thự, liền kề tại Khu đô thị mới Văn Quán	pr42143788	68.0	18.8	5	4	2	20.9741687115278	105.789294754007	Hà Đông	Hà Nội
Nhà riêng tại phố Kim Mã	pr41789025	22.0	12.8	5	4	2	21.0296644688259	105.809643830336	Ba Đình	Hà Nội
Nhà riêng tại đường Thụy Khuê	pr42613640	48.0	10.65	4	3	2	21.0429237761182	105.824050832873	Tây Hồ	Hà Nội
Nhà mặt phố tại phố Việt Hưng	pr41577768	78.0	13.0	1	1	2	21.0527268059411	105.898870469887	Long Biên	Hà Nội
Nhà riêng tại đường Minh Khai	pr42235373	38.0	8.0	4	4	2	20.9977121147949	105.866813217794	Hai Bà Trưng	Hà Nội
Nhà riêng tại đường Kim Ngưu	pr42485965	48.0	7.25	4	4	2	21.0057135523083	105.861554088259	Hai Bà Trưng	Hà Nội
Nhà riêng tại phố Thái Thịnh	pr42610893	51.0	7.95	4	4	2	21.0104029232236	105.818408879225	Đống Đa	Hà Nội
Nhà riêng tại đường Bùi Xương Trạch	pr42657671	47.0	16.6	4	5	2	20.9869390703741	105.81856463677	Thanh Xuân	Hà Nội
Nhà biệt thự, liền kề tại Khu đô thị Văn Khê	pr42028481	85.0	21.9	6	6	2	20.971890969999027	105.76108277349157	Hà Đông	Hà Nội
Nhà riêng tại đường Phan Trọng Tuệ	pr42329113	55.0	7.15	4	4	2	20.9438421816341	105.83817064982	Thanh Trì	Hà Nội
Căn hộ chung cư tại Viha Complex	pr42524689	117.0	11.115	3	3	1	20.9976804413617	105.80377419818	Thanh Xuân	Hà Nội
Nhà riêng tại đường Hoàng Ngân	pr42553391	46.0	11.0	4	4	2	21.0088425402617	105.801807360264	Cầu Giấy	Hà Nội
Nhà riêng tại đường Xuân Diệu	pr42626186	48.0	13.0	5	5	2	21.0665558205195	105.826339591664	Tây Hồ	Hà Nội
Nhà riêng tại đường Thượng Đình	pr42494806	56.0	7.05	3	3	2	20.9974134794724	105.816021765681	Thanh Xuân	Hà Nội
Nhà riêng tại phố Kim Mã	pr42643982	53.0	11.9	4	4	2	21.0318215497189	105.825229013687	Ba Đình	Hà Nội
Căn hộ chung cư tại Mipec Rubik 360	pr42522094	110.0	10.05	3	2	2	21.037153757135982	105.78634894145584	Cầu Giấy	Hà Nội
Nhà riêng tại phố Lê Thanh Nghị	pr42591156	60.0	12.8	9	1	2	21.0023350991983	105.846999502915	Hai Bà Trưng	Hà Nội
Nhà riêng tại phố Hạ Đình	pr42596748	50.6	7.5	5	3	2	20.9885475215566	105.810352137466	Thanh Xuân	Hà Nội
Nhà riêng tại đường Nguyễn Hy Quang	pr42381905	50.0	15.8	4	4	2	21.0187958406927	105.826539176429	Đống Đa	Hà Nội
Nhà riêng tại đường Bồ Đề	pr42616519	45.0	7.0	4	4	2	21.0384025615406	105.872261298009	Long Biên	Hà Nội
Nhà riêng tại đường Tam Trinh	pr42585483	60.0	11.8	6	5	-1	20.9735346335143	105.866324555191	Hoàng Mai	Hà Nội
Nhà biệt thự, liền kề tại Khu đô thị mới Văn Phú	pr42598175	80.0	19.5	5	4	2	20.958613663510164	105.76705629337692	Hà Đông	Hà Nội
Căn hộ chung cư tại N01-T1 Ngoại Giao Đoàn	pr42316700	133.0	10.0	3	2	2	21.06602620032774	105.79814451717758	Bắc Từ Liêm	Hà Nội
Nhà riêng tại đường Huỳnh Thúc Kháng	pr42339844	25.0	7.1	3	4	2	21.0182749832126	105.811550315058	Đống Đa	Hà Nội
Căn hộ chung cư tại Royal City	pr41870458	131.0	10.5	3	2	2	21.00259471038	105.815209321845	Thanh Xuân	Hà Nội
Nhà biệt thự, liền kề tại Khu đô thị Duyên Thái	pr41123596	102.0	12.0	4	5	2	20.8988830570593	105.867041833217	Thường Tín	Hà Nội
Nhà mặt phố tại đường Bế Văn Đàn	pr42507572	60.0	20.0	4	5	2	20.9701263834367	105.773500512052	Hà Đông	Hà Nội
Nhà riêng tại đường Trương Định	pr42586463	60.0	9.2	4	4	2	20.9838702473137	105.846337679217	Hoàng Mai	Hà Nội
Nhà riêng tại phố Giảng Võ	pr42588642	36.0	7.12	4	5	2	21.0261240437661	105.823257016604	Ba Đình	Hà Nội
Nhà riêng tại phố Phạm Tuấn Tài	pr42390030	70.0	18.5	4	5	2	21.0437152376973	105.786115285654	Cầu Giấy	Hà Nội
Nhà riêng tại đường Khương Đình	pr42581395	40.0	12.6	4	4	2	20.9919330168139	105.813255127799	Thanh Xuân	Hà Nội
Nhà riêng tại phố Ngọc Trì	pr42653124	50.0	8.5	3	4	2	21.0205684065206	105.911459993488	Long Biên	Hà Nội
Nhà biệt thự, liền kề tại Khu đô thị mới Văn Phú	pr38147823	73.0	18.69	4	5	2	20.958925616510676	105.76784858063932	Hà Đông	Hà Nội
Căn hộ chung cư tại N03-T6 Ngoại Giao Đoàn	pr42593755	134.0	11.95	3	2	2	21.065295846073337	105.79719999305526	Bắc Từ Liêm	Hà Nội
Nhà biệt thự, liền kề tại Hinode Royal Park	pr42583513	100.0	20.8	6	5	1	21.05631421448207	105.71622294253709	Hoài Đức	Hà Nội
Nhà riêng tại đường Phố Lụa	pr42605552	36.0	8.9	3	4	2	20.9800492831306	105.774020196497	Hà Đông	Hà Nội
Nhà riêng tại đường Tứ Liên	pr42348856	100.0	20.0	4	4	2	21.069438337497	105.838094677253	Tây Hồ	Hà Nội
Nhà riêng tại phố Dịch Vọng Hậu	pr42544677	40.0	9.2	5	3	2	21.0305742495967	105.78597776484	Cầu Giấy	Hà Nội
Căn hộ chung cư tại The Nelson Private Residences	pr42069320	106.0	13.4	3	2	1	21.020225586867063	105.81919702840575	Ba Đình	Hà Nội
Nhà riêng tại phố Hào Nam	pr42641205	38.0	8.5	3	3	2	21.0277784962747	105.827814451623	Đống Đa	Hà Nội
Căn hộ chung cư tại Sunshine Green Iconic	pr42450846	108.0	8.1	3	2	1	21.0410085505198	105.896769714091	Long Biên	Hà Nội
Nhà mặt phố tại đường Ngọc Hồi	pr42587128	160.0	16.1	4	4	2	20.9268388290174	105.849863953517	Thanh Trì	Hà Nội
Căn hộ chung cư tại 6th Element	pr42570109	109.0	12.0	3	2	2	21.059187889306376	105.80374977615354	Tây Hồ	Hà Nội
Nhà mặt phố tại đường Nguyễn Trãi	pr42501232	35.0	15.5	5	4	2	20.9874466556682	105.800521166762	Thanh Xuân	Hà Nội
Nhà riêng tại phố Vạn Phúc	pr42607309	36.0	7.9	3	4	2	20.9752257560703	105.786850193082	Hà Đông	Hà Nội
Nhà riêng tại đường Văn Cao	pr42652723	39.0	13.0	6	5	2	21.0403569587577	105.816082302284	Ba Đình	Hà Nội
Nhà riêng tại đường Trần Khát Chân	pr42606751	43.0	7.5	3	3	2	21.0088217227831	105.863210639826	Hai Bà Trưng	Hà Nội
Nhà riêng tại đường Hoàng Đạo Thành	pr42620245	45.0	13.6	3	5	2	20.9827775595842	105.812877888507	Thanh Xuân	Hà Nội
Nhà riêng tại phố Phùng Chí Kiên	pr41819619	35.0	10.95	3	3	2	21.043289211468	105.802700852404	Cầu Giấy	Hà Nội
Nhà riêng tại đường Cửu Việt 2	pr38053070	67.0	8.5	3	3	2	21.0087935	105.9377055	Gia Lâm	Hà Nội
Nhà riêng tại phố Quan Nhân	pr42629881	40.0	11.5	5	4	2	21.0032943128195	105.811009244092	Thanh Xuân	Hà Nội
Nhà riêng tại đường Ngọc Thụy	pr42597603	55.0	14.0	3	3	2	21.0499774138283	105.867079902155	Long Biên	Hà Nội
Nhà riêng tại phố Hào Nam	pr41742058	65.0	9.6	3	2	2	21.0255420146543	105.827568333223	Đống Đa	Hà Nội
Nhà riêng tại đường Giải Phóng	pr42593785	33.0	7.66	4	5	2	20.9758257511604	105.840824296286	Hoàng Mai	Hà Nội
Nhà riêng tại phố Thái Thịnh	pr42450511	50.0	15.7	8	6	2	21.0123716973952	105.817301391601	Đống Đa	Hà Nội
Căn hộ chung cư tại GoldSeason	pr39383405	101.0	7.6	3	2	2	20.9947719573975	105.806129455566	Thanh Xuân	Hà Nội
Căn hộ chung cư tại Mipec Rubik 360	pr42574463	108.0	8.9	3	2	2	21.037364682728953	105.78648704855333	Cầu Giấy	Hà Nội
Nhà riêng tại phố Ngọc Trì	pr42580533	55.0	11.8	4	5	2	21.0225084347554	105.91405583834	Long Biên	Hà Nội
Căn hộ chung cư tại Cầu Giấy Center Point	pr42608233	79.0	7.3	2	2	2	21.03232296720588	105.80035251739407	Cầu Giấy	Hà Nội
Nhà riêng tại đường 1A	pr42578720	60.0	11.4	4	5	2	20.9379658850436	105.844845234941	Thanh Trì	Hà Nội
Nhà riêng tại phố Thái Hà	pr42462459	45.0	9.25	4	3	2	21.0124153360244	105.820186443729	Đống Đa	Hà Nội
Căn hộ chung cư tại Golden Park Tower	pr42600550	81.6	8.0	2	2	2	21.026863439813916	105.788215765589	Cầu Giấy	Hà Nội
Nhà biệt thự, liền kề tại Khu đô thị mới Văn Phú	pr41267396	91.0	17.4	5	5	2	20.9580412919036	105.766808017434	Hà Đông	Hà Nội
Nhà riêng tại đường Kim Đồng	pr42158054	50.0	21.9	4	6	2	20.9838735479065	105.84309860728	Hoàng Mai	Hà Nội
Căn hộ chung cư tại Imperial Plaza	pr42101696	130.0	8.0	4	3	2	20.9848105445838	105.838721994266	Thanh Xuân	Hà Nội
Nhà riêng tại đường Trần Phú	pr41839790	46.0	10.57	2	3	2	20.975148518611	105.785494317632	Hà Đông	Hà Nội
Căn hộ chung cư tại Bamboo Airways Tower	pr42642609	98.0	8.8	3	2	2	21.034520457070364	105.79548639872844	Cầu Giấy	Hà Nội
Nhà biệt thự, liền kề tại Khai Sơn Hill	pr40239865	100.0	19.0	4	6	1	21.069172297848866	105.87835944057508	Long Biên	Hà Nội
Căn hộ chung cư tại PentStudio	pr40948916	179.0	18.0	2	2	2	21.0640926361084	105.80973815917967	Tây Hồ	Hà Nội
Nhà riêng tại đường Hoàng Mai	pr42591889	69.0	10.5	4	3	2	20.9884953433155	105.856648606124	Hoàng Mai	Hà Nội
Căn hộ chung cư tại D’. Le Roi Soleil	pr31643369	110.0	11.0	3	2	-1	21.0658321380615	105.826507568359	Tây Hồ	Hà Nội
Nhà riêng tại đường Vân Canh	pr41622763	45.0	10.5	3	4	2	21.0355785176093	105.732684762704	Hoài Đức	Hà Nội
Nhà biệt thự, liền kề tại Khu đô thị Duyên Thái	pr42598235	84.6	9.3	4	4	2	20.8980151586401	105.856471024454	Thường Tín	Hà Nội
Nhà riêng tại đường Định Công Thượng	pr42645499	40.0	7.5	4	4	2	20.982717439904	105.821226278595	Hoàng Mai	Hà Nội
Nhà biệt thự, liền kề tại Khu nhà ở xã Tân Lập - Cienco 5	pr42620689	75.0	11.0	4	4	2	21.073096463105433	105.71363602332832	Đan Phượng	Hà Nội
Nhà riêng tại đường Hoàng Quốc Việt	pr41736567	48.0	18.0	5	3	2	21.046298970364	105.79928069416	Cầu Giấy	Hà Nội
Nhà riêng tại phố Trần Quốc Hoàn	pr42653412	60.0	18.5	4	3	2	21.041583503417	105.78610438485	Cầu Giấy	Hà Nội
Nhà mặt phố tại phố Nguyễn Ngọc Vũ	pr42656175	72.25	11.25	6	6	2	21.0118391101884	105.808400668593	Cầu Giấy	Hà Nội
Nhà mặt phố tại đường Kim Giang	pr39893551	79.0	21.99	5	4	2	20.9791213	105.8210801	Hoàng Mai	Hà Nội
Nhà riêng tại đường Mỹ Đình	pr41855364	40.0	7.5	1	1	2	21.0274953405912	105.774342266552	Nam Từ Liêm	Hà Nội
Căn hộ chung cư tại D’. Le Roi Soleil	pr38835201	146.0	10.0	3	2	2	21.0658321380615	105.826507568359	Tây Hồ	Hà Nội
Căn hộ chung cư tại Khu đô thị Nam Thăng Long - Ciputra	pr39748921	119.0	7.4	3	2	2	21.072135925293	105.810997009277	Tây Hồ	Hà Nội
Nhà biệt thự, liền kề tại Xanh Villas	pr39416640	258.0	14.0	5	4	-1	20.9901828765869	105.499954223633	Thạch Thất	Hà Nội
Nhà riêng tại đường Quang Trung	pr42619638	35.0	7.69	3	4	2	20.9559585184081	105.765988857199	Hà Đông	Hà Nội
Nhà mặt phố tại đường Quang Lãm	pr41011473	36.0	7.25	4	3	2	20.944996629139187	105.75719800649166	Hà Đông	Hà Nội
Nhà biệt thự, liền kề tại An Lạc Green Symphony	pr42491381	80.0	18.5	4	4	1	21.033290135932955	105.73203645159975	Hoài Đức	Hà Nội
Nhà riêng tại đường Trần Thái Tông	pr42655002	38.0	8.5	6	5	2	21.0317479214015	105.788607779888	Cầu Giấy	Hà Nội
Nhà riêng tại đường Tam Khương	pr42611088	46.0	15.3	6	4	2	21.0043752107896	105.828179186007	Đống Đa	Hà Nội
Nhà riêng tại đường Vũ Trọng Khánh	pr42631247	76.0	10.9	6	6	2	20.9832017910244	105.782775265245	Hà Đông	Hà Nội
Nhà riêng tại đường Trúc Bạch	pr42590966	90.0	15.5	4	5	2	21.0478485140757	105.841723946536	Ba Đình	Hà Nội
Nhà riêng tại đường Hoàng Văn Thái	pr42583970	60.0	14.6	4	4	2	20.9965696113926	105.824600817237	Thanh Xuân	Hà Nội
Nhà riêng tại đường Tô Hiệu	pr42584344	50.0	9.9	4	5	2	20.9663569	105.7769556	Hà Đông	Hà Nội
Căn hộ chung cư tại Khu đô thị Trung Hòa - Nhân Chính	pr42604291	155.0	10.2	3	2	2	21.008465461286985	105.80289928302314	Cầu Giấy	Hà Nội
Nhà riêng tại phường Phương Canh	pr42580934	47.0	7.97	4	5	2	21.042450881839	105.737098954973	Nam Từ Liêm	Hà Nội
Nhà biệt thự, liền kề tại phường Ngọc Thụy	pr42592496	39.0	9.3	3	4	-1	21.059037002626	105.868169285682	Long Biên	Hà Nội
Nhà riêng tại phố Trung Kính	pr42611514	68.0	21.8	6	5	2	21.0117411859234	105.80114806953	Cầu Giấy	Hà Nội
Nhà riêng tại đường Lê Trọng Tấn	pr42624331	50.0	12.5	4	3	2	21.0005867932586	105.827870532637	Thanh Xuân	Hà Nội
Nhà riêng tại đường Xuân Thủy	pr42515362	50.0	16.8	10	6	2	21.0369201759622	105.785529871442	Cầu Giấy	Hà Nội
Nhà riêng tại đường Cầu Giấy	pr42634942	46.0	15.8	5	5	2	21.0300174637424	105.801506039935	Cầu Giấy	Hà Nội
Căn hộ chung cư tại D’. Le Roi Soleil	pr42200787	146.0	17.5	3	2	1	21.0663127694218	105.826975293247	Tây Hồ	Hà Nội
Căn hộ chung cư tại Khu đô thị Nam Thăng Long - Ciputra	pr42575194	153.0	12.8	4	2	2	21.07372842845589	105.823678208433	Tây Hồ	Hà Nội
Nhà riêng tại đường Võ Chí Công	pr42576941	38.0	12.5	4	5	2	21.0595073234605	105.804857639753	Tây Hồ	Hà Nội
Căn hộ chung cư tại Khu đô thị Yên Hòa	pr42591361	98.9	7.0	3	2	2	21.01830876197813	105.79498394350804	Cầu Giấy	Hà Nội
Nhà riêng tại đường Minh Khai	pr41123841	58.0	8.8	7	4	2	20.995738977019	105.860024959757	Hoàng Mai	Hà Nội
Nhà riêng tại phố Kim Mã	pr41629620	40.0	8.2	4	5	2	21.0317015571734	105.825260634394	Ba Đình	Hà Nội
Căn hộ chung cư tại Vinhomes Metropolis - Liễu Giai	pr38739708	110.0	17.0	3	2	2	21.0332698822021	105.816703796387	Ba Đình	Hà Nội
Nhà riêng tại đường Ngọc Hà	pr42594703	42.0	10.2	3	4	2	21.0379873062473	105.830318004575	Ba Đình	Hà Nội
Nhà riêng tại đường Ngọc Thụy	pr42599149	48.0	12.6	3	4	2	21.0495337444212	105.866510019648	Long Biên	Hà Nội
Nhà riêng tại đường Bồ Đề	pr42577252	60.0	9.95	4	5	2	21.038157710265	105.872288454275	Long Biên	Hà Nội
Căn hộ chung cư tại Khu đô thị Mỹ Đình Sông Đà - Sudico	pr40215369	103.0	7.45	3	2	2	21.01764460688114	105.7804209774341	Nam Từ Liêm	Hà Nội
Căn hộ chung cư tại La Casta Văn Phú	pr39638813	117.0	7.6	3	2	-1	20.9634590148926	105.762763977051	Hà Đông	Hà Nội
Căn hộ chung cư tại đường Thành Thái	pr42597112	107.5	8.0	3	2	2	21.0298217480652	105.791747037846	Cầu Giấy	Hà Nội
Nhà mặt phố tại đường Mậu Lương	pr41990567	65.0	14.5	1	1	2	20.9581714576024	105.794563443659	Hà Đông	Hà Nội
Nhà riêng tại đường Yên Vĩnh	pr42596850	176.0	15.14	4	5	2	21.0517157129362	105.709496210636	Hoài Đức	Hà Nội
Căn hộ chung cư tại Mandarin Garden	pr42298445	160.0	16.0	3	2	2	21.00476162876752	105.79866364652185	Cầu Giấy	Hà Nội
Nhà biệt thự, liền kề tại Xuân Phương Tasco	pr39362482	86.0	10.75	4	5	1	21.0253524780273	105.741302490234	Nam Từ Liêm	Hà Nội
Nhà riêng tại đường Giáp Bát	pr42582980	40.0	8.98	4	3	2	20.9852396652315	105.843589238581	Hoàng Mai	Hà Nội
Nhà biệt thự, liền kề tại Vinhomes Wonder City	pr42598657	96.0	16.2	5	5	2	21.09646054822915	105.712028691069	Đan Phượng	Hà Nội
Nhà riêng tại đường Nguyễn Công Hoan	pr42382108	58.0	14.5	4	4	2	21.0271513247799	105.815298870546	Ba Đình	Hà Nội
Căn hộ chung cư tại Khu đô thị Mỹ Đình Sông Đà - Sudico	pr42612229	145.0	8.9	4	3	2	21.01734395015609	105.780796918887	Nam Từ Liêm	Hà Nội
Nhà mặt phố tại phố Phú Lương	pr42598660	47.0	9.1	3	4	2	20.9399560039259	105.764590332239	Hà Đông	Hà Nội
Căn hộ chung cư tại N04 - KĐT Đông Nam Trần Duy Hưng	pr41084191	94.0	7.2	2	2	-1	21.008878707885746	105.80025482177734	Cầu Giấy	Hà Nội
Nhà riêng tại đường Hoàng Hoa Thám	pr42602044	50.0	8.5	3	4	2	21.0461205100482	105.811248164036	Ba Đình	Hà Nội
Nhà mặt phố tại đường Phan Đình Giót	pr42511459	60.0	13.5	4	4	2	20.9671393044644	105.764937357805	Hà Đông	Hà Nội
Căn hộ chung cư tại Thống Nhất Complex	pr42612000	95.0	7.9	3	2	2	20.998134360528073	105.80342324469258	Thanh Xuân	Hà Nội
Nhà riêng tại đường Kim Giang	pr41210075	40.0	7.3	5	5	2	20.9791921639578	105.821113373191	Hoàng Mai	Hà Nội
Nhà riêng tại đường Tư Đình	pr42027055	55.0	14.8	4	5	2	21.0287430494634	105.884013153186	Long Biên	Hà Nội
Nhà riêng tại đường Hoàng Hoa Thám	pr42556492	36.0	9.5	4	5	-1	21.0398257500554	105.827857578081	Ba Đình	Hà Nội
Nhà riêng tại đường Phố Trạm	pr42646096	83.0	8.6	5	5	2	21.0267110332173	105.892793733484	Long Biên	Hà Nội
Căn hộ chung cư tại The Golden Palm Lê Văn Lương	pr41381194	125.0	8.4	3	2	2	21.006311416626	105.807479858398	Thanh Xuân	Hà Nội
Căn hộ chung cư tại Eurowindow Multi Complex	pr42125608	100.0	7.1	3	2	2	21.010860693907578	105.79970159614504	Cầu Giấy	Hà Nội
Nhà riêng tại phố Hoàng Cầu	pr42600942	75.0	22.0	4	3	2	21.0166547570552	105.822486418445	Đống Đa	Hà Nội
Nhà riêng tại phố Quan Nhân	pr42587552	52.0	12.7	4	4	2	21.0036320372722	105.811063379713	Thanh Xuân	Hà Nội
Nhà riêng tại phường Bồ Đề	pr42469942	50.0	13.0	4	3	2	21.0377478794758	105.87287550736	Long Biên	Hà Nội
Nhà riêng tại đường Phố Trạm	pr42632408	58.0	16.5	5	6	2	21.026164714473	105.893042630045	Long Biên	Hà Nội
Căn hộ chung cư tại Mipec Rubik 360	pr42596899	108.0	10.4	3	2	2	21.03713310151355	105.7863320706628	Cầu Giấy	Hà Nội
Nhà riêng tại đường Lai Xá	pr42635852	42.0	10.5	4	4	2	21.0653643405608	105.716296806779	Hoài Đức	Hà Nội
Nhà riêng tại đường An Dương Vương	pr42269549	39.2	8.1	4	6	2	21.084171650355003	105.80691110226434	Tây Hồ	Hà Nội
Nhà riêng tại đường Bồ Đề	pr40999505	60.0	11.5	4	3	2	21.0379866921422	105.872049585906	Long Biên	Hà Nội
Căn hộ chung cư tại D’. Le Roi Soleil	pr40930541	103.0	9.0	3	3	2	21.0667156943803	105.826482553776	Tây Hồ	Hà Nội
Nhà riêng tại đường Nguyễn Xiển	pr41050068	45.0	16.87	4	4	2	20.9871919532604	105.806561793	Thanh Xuân	Hà Nội
Căn hộ chung cư tại Golden Park Tower	pr42530155	136.0	11.6	3	2	2	21.027154483825	105.788099399366	Cầu Giấy	Hà Nội
Nhà riêng tại phường Khương Đình	pr42657414	35.0	7.7	4	3	2	20.9898650672373	105.820343836673	Thanh Xuân	Hà Nội
Nhà riêng tại phường Thạch Bàn	pr42622337	46.0	8.8	3	4	2	21.0209829695281	105.917965426007	Long Biên	Hà Nội
Nhà riêng tại đường Nguyễn Văn Cừ	pr42463283	96.0	11.5	6	5	2	21.0494949941855	105.883415947426	Long Biên	Hà Nội
Nhà riêng tại đường Kim Ngưu	pr42626799	44.0	7.25	4	3	2	21.0052753187748	105.861602827804	Hai Bà Trưng	Hà Nội
Nhà riêng tại đường Định Công Hạ	pr42608115	60.0	9.8	4	4	2	20.9828557435771	105.82746028943	Hoàng Mai	Hà Nội
Nhà riêng tại đường Lạc Long Quân	pr42618169	31.0	7.1	3	4	2	21.0608836615655	105.809174935518	Tây Hồ	Hà Nội
Nhà riêng tại đường Kim Giang	pr42524663	45.0	12.5	5	6	2	20.9638178440518	105.818177889537	Thanh Trì	Hà Nội
Nhà riêng tại đường Nguyễn Văn Lộc	pr41573523	49.6	15.8	3	3	2	20.9855674703696	105.785780657943	Hà Đông	Hà Nội
Căn hộ chung cư tại Golden Land	pr42633544	132.0	9.25	3	2	2	20.99427224862982	105.80666970491234	Thanh Xuân	Hà Nội
Nhà riêng tại phố Đại La	pr42624078	45.0	7.5	4	4	2	20.9979569704293	105.84460030448	Hai Bà Trưng	Hà Nội
Nhà riêng tại đường Tân Mai	pr42624559	45.0	12.0	4	5	2	20.9837969543496	105.848008135793	Hoàng Mai	Hà Nội
Căn hộ chung cư tại Hateco Laroma	pr42476635	137.0	18.0	3	2	2	21.02022216628258	105.80767980849436	Đống Đa	Hà Nội
Nhà riêng tại đường Phạm Văn Đồng	pr42627471	60.0	15.5	6	5	2	21.0421361814313	105.7809497573	Cầu Giấy	Hà Nội
Nhà riêng tại đường Trương Định	pr42591932	60.0	9.3	4	5	2	20.993667976539	105.846828860935	Hoàng Mai	Hà Nội
Nhà riêng tại đường Dương Văn Bé	pr42578868	47.0	11.35	5	4	2	20.9958357380648	105.873724581356	Hai Bà Trưng	Hà Nội
Nhà riêng tại đường Khương Đình	pr42611972	40.0	8.6	3	3	2	20.9911561784726	105.813240364734	Thanh Xuân	Hà Nội
Căn hộ chung cư tại MD Complex Mỹ Đình	pr42577762	158.0	9.1	3	2	2	21.029420822702452	105.761825004568	Nam Từ Liêm	Hà Nội
Nhà riêng tại đường Trường Chinh	pr42193401	61.0	14.0	4	3	2	20.9983207134612	105.8376701273	Đống Đa	Hà Nội
Căn hộ chung cư tại Vinhomes Skylake	pr38137471	80.0	7.6	2	2	2	21.0201683044434	105.780754089355	Nam Từ Liêm	Hà Nội
Nhà riêng tại đường 800A	pr42584068	50.0	17.5	6	6	2	21.0416823092417	105.801028268367	Cầu Giấy	Hà Nội
Nhà riêng tại phố Lê Thanh Nghị	pr42452981	55.5	16.5	6	5	2	21.0018697984587	105.846816398131	Hai Bà Trưng	Hà Nội
Căn hộ chung cư tại Tòa nhà Petrowaco - 97 Láng Hạ	pr42589668	235.6	17.9	4	3	2	21.014495936959	105.814512163927	Đống Đa	Hà Nội
Nhà riêng tại đường Thạch Bàn	pr42343550	60.0	8.0	4	5	2	21.0249949121826	105.907962215945	Long Biên	Hà Nội
Nhà riêng tại đường Ngọc Hà	pr40024239	70.0	15.0	4	4	2	21.0377651	105.8300275	Ba Đình	Hà Nội
Nhà riêng tại đường Nguyễn Sơn	pr42558248	95.0	16.0	5	4	2	21.045353806725	105.88048470729	Long Biên	Hà Nội
Nhà riêng tại phố Kim Mã	pr41156022	60.0	11.9	5	4	2	21.0319421686778	105.825165486858	Ba Đình	Hà Nội
Nhà riêng tại phố Thái Hà	pr42498936	47.0	17.4	5	4	2	21.0128282826719	105.819958091572	Đống Đa	Hà Nội
Nhà riêng tại đường An Dương Vương	pr41777029	110.0	17.2	3	2	2	21.08953357082	105.804435601902	Tây Hồ	Hà Nội
Nhà riêng tại đường Đàm Quang Trung	pr42523601	45.0	9.2	3	5	2	21.0321153198481	105.900624506759	Long Biên	Hà Nội
Nhà riêng tại đường Trần Duy Hưng	pr42554167	56.4	20.0	6	5	2	21.0107582107352	105.799526309423	Cầu Giấy	Hà Nội
Nhà riêng tại đường Ngọc Thụy	pr42575635	70.0	8.8	4	4	2	21.0500745376623	105.86651850417	Long Biên	Hà Nội
Căn hộ chung cư tại Vinhomes Gardenia	pr41738949	75.2	7.37	2	2	2	21.0365676879883	105.760482788086	Nam Từ Liêm	Hà Nội
Nhà riêng tại đường Ngô Gia Khảm	pr41529708	70.0	19.5	4	4	2	21.0484928587374	105.878539598014	Long Biên	Hà Nội
Nhà riêng tại phường Liên Mạc	pr42617159	150.0	12.0	2	1	2	21.0852548798153	105.756609478286	Bắc Từ Liêm	Hà Nội
Nhà riêng tại đường Định Công Thượng	pr42597686	47.0	7.8	4	5	-1	20.9784595748939	105.828374161171	Thanh Xuân	Hà Nội
Căn hộ chung cư tại Handi Resco Lê Văn Lương	pr39839496	100.0	7.5	3	2	2	21.003768035236796	105.80266209718432	Thanh Xuân	Hà Nội
Nhà riêng tại phường Thạch Bàn	pr42611356	56.0	7.3	4	3	2	21.0207630435895	105.918088063863	Long Biên	Hà Nội
Căn hộ chung cư tại T-Place	pr40362097	72.0	14.4	3	2	2	21.02270451210201	105.8529384399491	Hoàn Kiếm	Hà Nội
Nhà riêng tại phố Doãn Kế Thiện	pr42299348	50.0	9.4	8	5	2	21.0408274472881	105.779024538686	Cầu Giấy	Hà Nội
Nhà biệt thự, liền kề tại Khu đô thị mới Lideco - Bắc Quốc lộ 32	pr41209614	84.0	15.0	5	6	2	21.06819213325292	105.71007224734132	Hoài Đức	Hà Nội
Căn hộ chung cư tại The Manor - Hà Nội	pr42590128	106.0	7.5	2	2	2	21.014203918873356	105.77673855181168	Nam Từ Liêm	Hà Nội
Nhà biệt thự, liền kề tại đường Thịnh Liệt	pr42573465	65.0	16.8	4	4	2	20.9711387387985	105.844451117667	Hoàng Mai	Hà Nội
Nhà riêng tại đường Vũ Trọng Phụng	pr42640121	33.0	7.1	3	4	2	20.9993644458418	105.807889840319	Thanh Xuân	Hà Nội
Nhà mặt phố tại phố Dịch Vọng Hậu	pr42529723	40.0	9.2	6	5	2	21.030908955362	105.786287823955	Cầu Giấy	Hà Nội
Nhà mặt phố tại đường Trần Phú	pr42582580	50.0	19.99	4	4	2	20.9747170641479	105.785525523907	Hà Đông	Hà Nội
Căn hộ chung cư tại The Manor - Hà Nội	pr42600169	100.0	8.2	2	2	2	21.014780227545543	105.77539020496305	Nam Từ Liêm	Hà Nội
Nhà riêng tại đường Láng	pr42308646	44.0	17.95	7	5	2	21.021574672778	105.800840733871	Đống Đa	Hà Nội
Nhà riêng tại đường Lạc Long Quân	pr42655864	60.0	20.0	6	6	2	21.0537689302234	105.809123931487	Cầu Giấy	Hà Nội
Căn hộ chung cư tại Eco Green City	pr42586616	95.0	13.8	3	2	2	20.9838197078143	105.80855035539182	Thanh Trì	Hà Nội
Nhà riêng tại đường Lãng Yên	pr42620723	62.0	20.0	5	6	2	21.0089923666926	105.866100540186	Hai Bà Trưng	Hà Nội
Căn hộ chung cư tại Hà Nội Center Point	pr42624407	82.0	7.5	3	2	2	21.0049341325521	105.804926770677	Thanh Xuân	Hà Nội
Nhà riêng tại đường Kim Ngưu	pr42635263	35.0	7.0	3	4	2	21.0046737992821	105.86086211677	Hai Bà Trưng	Hà Nội
Nhà riêng tại đường Phố Lụa	pr42631486	60.0	14.7	5	5	2	20.9799523749147	105.774403259417	Hà Đông	Hà Nội
Nhà riêng tại đường La Tinh	pr42584105	79.0	8.0	2	2	2	20.9701811848493	105.720154247906	Hoài Đức	Hà Nội
Nhà riêng tại đường Tân Mai	pr41967255	43.1	7.95	5	4	2	20.9840559864533	105.850278229215	Hoàng Mai	Hà Nội
Căn hộ chung cư tại D’. El Dorado II	pr36292301	76.0	8.0	2	2	0	21.0707530975342	105.8095703125	Tây Hồ	Hà Nội
Nhà riêng tại phố Phùng Chí Kiên	pr42626507	60.0	20.0	6	6	2	21.04336221826	105.802505062276	Cầu Giấy	Hà Nội
Nhà riêng tại đường Văn Trì	pr42616059	38.0	7.5	5	6	2	21.0508178549568	105.741217459722	Bắc Từ Liêm	Hà Nội
Nhà riêng tại phố Tạ Quang Bửu	pr41793054	42.0	13.8	3	3	2	21.0064724662462	105.846832395953	Hai Bà Trưng	Hà Nội
Nhà mặt phố tại đường Cửu Việt 2	pr42428560	105.0	14.5	2	1	2	21.0101409218178	105.936482660472	Gia Lâm	Hà Nội
Nhà biệt thự, liền kề tại New House City	pr39446560	292.0	15.476	6	5	2	21.0032348632813	105.646186828613	Quốc Oai	Hà Nội
Nhà riêng tại phố Trần Quốc Hoàn	pr42299807	68.0	19.0	4	5	2	21.0415804269763	105.78596092007	Cầu Giấy	Hà Nội
Nhà riêng tại đường Nguyễn Văn Huyên	pr42650548	45.0	18.5	3	4	2	21.038154433675	105.797667823161	Cầu Giấy	Hà Nội
Căn hộ chung cư tại Iris Garden	pr42602060	135.0	8.0	3	2	2	21.0317763268545	105.76091025434	Nam Từ Liêm	Hà Nội
Nhà riêng tại đường Đào Tấn	pr42219751	94.3	21.0	3	3	2	21.0327493068977	105.808863851036	Ba Đình	Hà Nội
Nhà riêng tại đường Trương Định	pr42470007	35.0	7.4	5	4	2	20.9950025293598	105.849879020612	Hai Bà Trưng	Hà Nội
Nhà riêng tại đường Kim Giang	pr42633342	120.0	17.8	4	3	2	20.9829237531082	105.815503243296	Thanh Xuân	Hà Nội
Nhà riêng tại đường Đại Mỗ	pr42630896	45.0	9.7	4	4	2	20.9900611541071	105.76161629613	Nam Từ Liêm	Hà Nội
Căn hộ chung cư tại Eco Dream Nguyễn Xiển	pr41449177	150.0	8.5	3	3	2	20.983062744140625	105.80908203125	Thanh Trì	Hà Nội
Căn hộ chung cư tại Khu đô thị mới Dịch Vọng	pr42591139	110.0	7.5	3	2	2	21.029180177650137	105.79400882063456	Cầu Giấy	Hà Nội
Nhà riêng tại phố Trần Cung	pr42602444	60.0	18.5	4	3	2	21.0526514725638	105.78909212491	Bắc Từ Liêm	Hà Nội
Căn hộ chung cư tại Riverside Garden	pr42510028	126.0	8.5	3	2	2	20.989817437284632	105.81440465622728	Thanh Xuân	Hà Nội
Nhà riêng tại đường Ngọc Đại	pr42601465	58.0	11.2	5	5	2	20.9884704826915	105.770634820977	Nam Từ Liêm	Hà Nội
Nhà riêng tại đường Nguyễn Chí Thanh	pr42371289	46.0	15.7	5	4	2	21.0205862746169	105.80801370355	Đống Đa	Hà Nội
Nhà mặt phố tại phố Cự Lộc	pr42563922	40.0	13.9	3	5	2	21.0029824396003	105.812322926875	Thanh Xuân	Hà Nội
Căn hộ chung cư tại Khu đô thị Trung Hòa - Nhân Chính	pr42633086	152.0	8.5	3	3	2	21.008864024286403	105.80348366677184	Cầu Giấy	Hà Nội
Nhà riêng tại đường Phúc Lợi	pr42455491	73.0	21.8	4	5	2	21.0384984514907	105.934661177373	Long Biên	Hà Nội
Căn hộ chung cư tại Vinata Tower	pr30632403	115.0	7.5	3	2	2	20.9965934753418	105.798934936523	Cầu Giấy	Hà Nội
Nhà riêng tại đường Trần Duy Hưng	pr42656247	55.0	12.3	4	4	2	21.0105892384941	105.799543504788	Cầu Giấy	Hà Nội
Nhà riêng tại đường Lạc Long Quân	pr42465359	52.0	13.2	5	4	2	21.0556746439859	105.808927638818	Tây Hồ	Hà Nội
Nhà riêng tại đường Khương Đình	pr42586886	37.0	8.9	4	4	2	20.9923969380777	105.813151066215	Thanh Xuân	Hà Nội
Nhà riêng tại đường Hoàng Hoa Thám	pr42582813	40.0	7.6	2	2	2	21.046557120504	105.810257865069	Tây Hồ	Hà Nội
Nhà riêng tại đường Đại Từ	pr41818227	40.0	9.85	3	4	2	20.971206913517	105.835650639366	Hoàng Mai	Hà Nội
Nhà riêng tại đường Tam Trinh	pr42590055	40.0	12.8	4	4	2	20.9861645836351	105.863866792378	Hai Bà Trưng	Hà Nội
Nhà mặt phố tại đường Nguyễn Lương Bằng	pr42322238	22.0	8.85	2	2	2	21.0164459261715	105.828455809916	Đống Đa	Hà Nội
Nhà mặt phố tại đường Ngô Gia Tự	pr40269610	50.0	17.0	5	5	-1	21.0657541	105.8981395	Long Biên	Hà Nội
Căn hộ chung cư tại Chung cư 671 Hoàng Hoa Thám	pr42619183	150.0	9.5	3	2	2	21.047407425085368	105.8075810645378	Ba Đình	Hà Nội
Nhà riêng tại đường Khuất Duy Tiến	pr41740701	32.7	7.65	4	5	2	20.9952155326211	105.8001399697	Thanh Xuân	Hà Nội
Nhà mặt phố tại đường Vân Canh	pr42590866	42.0	9.8	4	4	-1	21.0355828023543	105.732795054471	Hoài Đức	Hà Nội
Nhà riêng tại đường Lê Trọng Tấn	pr42631565	50.0	16.5	5	5	2	20.9984088677146	105.828452202481	Thanh Xuân	Hà Nội
Căn hộ chung cư tại Kosmo Tây Hồ	pr41023001	118.0	10.5	3	2	2	21.06853675842285	105.80276489257812	Bắc Từ Liêm	Hà Nội
Nhà mặt phố tại phố Lý Thường Kiệt	pr42477088	40.0	12.7	5	4	2	20.9663569250672	105.770974773586	Hà Đông	Hà Nội
Căn hộ chung cư tại Goldmark City	pr42196383	160.0	8.75	4	2	2	21.044214109804734	105.76733466555564	Bắc Từ Liêm	Hà Nội
Căn hộ chung cư tại Hei Tower	pr42351178	103.6	7.69	3	2	-1	21.003260042773576	105.80507524176132	Thanh Xuân	Hà Nội
Căn hộ chung cư tại Vinhomes Skylake	pr42548265	94.0	10.5	3	2	2	21.020261810733174	105.78044148095007	Nam Từ Liêm	Hà Nội
Nhà riêng tại phường Láng Hạ	pr42593677	48.0	10.95	3	3	2	21.0158560695023	105.81214556114	Đống Đa	Hà Nội
Căn hộ chung cư tại PentStudio	pr42633379	180.0	18.0	3	3	2	21.077941062596025	105.81445668136944	Tây Hồ	Hà Nội
Nhà riêng tại đường Hồ Tùng Mậu	pr42578484	40.0	8.35	4	5	2	21.0381908811692	105.773482869012	Cầu Giấy	Hà Nội
Căn hộ chung cư tại Khu đô thị Trung Hòa - Nhân Chính	pr42592083	110.0	7.92	3	2	2	21.008042914960654	105.80255207888342	Cầu Giấy	Hà Nội
Nhà riêng tại đường Xuân La	pr42622824	45.0	9.3	4	5	2	21.0641996598366	105.806301875027	Tây Hồ	Hà Nội
Căn hộ chung cư tại Diamond Flower Tower	pr42620346	122.0	9.76	3	2	2	21.00537321141249	105.8036350797798	Thanh Xuân	Hà Nội
Căn hộ chung cư tại Việt Đức Complex	pr42589417	100.0	7.0	3	2	2	20.999243870764793	105.799995721367	Thanh Xuân	Hà Nội
Căn hộ chung cư tại GoldSeason	pr41440366	167.9	14.0	4	3	2	20.9981770058755	105.803703520616	Thanh Xuân	Hà Nội
Nhà mặt phố tại đường Xuân Tảo	pr42655472	48.0	15.0	5	4	2	21.0572757900111	105.797735759486	Tây Hồ	Hà Nội
Nhà riêng tại đường Nguyễn Đức Cảnh	pr42570037	51.2	18.5	4	5	2	20.9867805005066	105.851724018533	Hoàng Mai	Hà Nội
Nhà riêng tại đường Võ Thị Sáu	pr42384275	45.0	17.9	4	3	2	21.0059636580179	105.855144640999	Hai Bà Trưng	Hà Nội
Nhà riêng tại đường Lạc Long Quân	pr42605868	50.0	11.5	6	5	2	21.0534930845686	105.80859395751	Cầu Giấy	Hà Nội
Nhà mặt phố tại đường Phúc Hoa	pr42476360	50.0	16.0	4	5	2	21.086780816946	105.810632265387	Tây Hồ	Hà Nội
Căn hộ chung cư tại The Zei Mỹ Đình	pr41073543	91.9	7.3	2	2	2	21.0344581604004	105.769653320313	Nam Từ Liêm	Hà Nội
Căn hộ chung cư tại Star Tower (Tòa tháp Ngôi Sao)	pr42458972	145.0	9.7	3	3	2	21.025024491123876	105.79134137466292	Cầu Giấy	Hà Nội
Căn hộ chung cư tại Hong Kong Tower	pr41298428	127.0	11.5	3	2	2	21.0161630832532	105.832424789788	Đống Đa	Hà Nội
Nhà riêng tại đường Đức Giang	pr42598570	40.0	8.5	3	3	2	21.0675267109896	105.899875973034	Long Biên	Hà Nội
Nhà riêng tại phố Thái Hà	pr42464909	40.0	9.9	7	4	2	21.0126435922286	105.82038490007	Đống Đa	Hà Nội
Nhà riêng tại đường Hoàng Như Tiếp	pr42584500	46.0	9.1	4	5	2	21.0406777780403	105.877300175395	Long Biên	Hà Nội
Căn hộ chung cư tại Vinhomes D'Capitale	pr42603828	103.0	7.5	3	2	2	21.0056279353104	105.79443462091486	Cầu Giấy	Hà Nội
Nhà riêng tại đường Lê Trọng Tấn	pr42063637	72.0	17.5	5	6	2	21.0002139970829	105.828172104475	Thanh Xuân	Hà Nội
Căn hộ chung cư tại Hà Nội Aqua Central	pr42481884	110.0	15.0	3	2	2	21.044286878225392	105.84554229355778	Ba Đình	Hà Nội
Nhà riêng tại đường Hoàng Quốc Việt	pr42373993	70.0	18.0	4	4	2	21.0462281438669	105.799159624697	Cầu Giấy	Hà Nội
Nhà riêng tại phường Khương Đình	pr42603527	50.0	8.98	5	5	2	20.9899910014556	105.820092678631	Thanh Xuân	Hà Nội
Nhà riêng tại đường Võ Chí Công	pr42496069	50.0	8.9	2	2	2	21.059798362123	105.804545808139	Tây Hồ	Hà Nội
Nhà riêng tại đường Quan Hoa	pr42599060	36.0	14.5	4	6	2	21.0403321094449	105.806486736487	Cầu Giấy	Hà Nội
Nhà riêng tại phố Trúc Khê	pr42247892	68.0	21.5	6	5	2	21.0161434652521	105.807768520638	Đống Đa	Hà Nội
Nhà riêng tại phố Ngọc Khánh	pr42622075	52.0	9.7	6	6	2	21.0252893757023	105.818535013605	Ba Đình	Hà Nội
Nhà riêng tại phố Liễu Giai	pr42580570	36.0	7.15	4	5	2	21.0338983921755	105.813203773954	Ba Đình	Hà Nội
Căn hộ chung cư tại The Link 345-CT1	pr42486985	115.0	9.2	3	2	2	21.08218843850991	105.79221997610564	Bắc Từ Liêm	Hà Nội
Nhà riêng tại phường Quan Hoa	pr42651226	40.0	9.8	5	3	2	21.0358045745561	105.799168147497	Cầu Giấy	Hà Nội
Nhà riêng tại đường Kim Ngưu	pr42537742	30.0	9.25	3	3	2	21.0046122229714	105.861371013219	Hai Bà Trưng	Hà Nội
Nhà riêng tại đường Đội Cấn	pr40280418	45.0	8.9	7	4	2	21.0349161	105.8253805	Ba Đình	Hà Nội
Nhà riêng tại phường Trung Liệt	pr42630783	55.0	20.0	4	4	2	21.0111931043179	105.822085224619	Đống Đa	Hà Nội
Nhà riêng tại đường Thọ Xương	pr42075532	23.0	13.0	3	4	2	21.0291431194337	105.848513025166	Hoàn Kiếm	Hà Nội
Nhà riêng tại phường Quan Hoa	pr42612496	50.0	18.0	4	5	2	21.0360813568335	105.79929008387	Cầu Giấy	Hà Nội
Nhà riêng tại đường Hồng Hà	pr42378396	56.0	15.5	6	4	2	21.0442515945878	105.846859880163	Ba Đình	Hà Nội
Căn hộ chung cư tại đường Trần Hữu Dực	pr42613000	135.0	9.0	3	2	2	21.0286127891142	105.764870859624	Nam Từ Liêm	Hà Nội
Nhà biệt thự, liền kề tại Đông Dương Residence	pr42636573	80.0	11.0	5	5	2	21.07809228460768	105.6901372231728	Hoài Đức	Hà Nội
Căn hộ chung cư tại Diamond Flower Tower	pr42502328	125.0	9.2	3	2	2	21.00594037846683	105.804019407057	Thanh Xuân	Hà Nội
Nhà mặt phố tại phường Đức Giang	pr42588733	80.0	20.0	4	4	2	21.0647236379231	105.895613852022	Long Biên	Hà Nội
Nhà riêng tại đường Kiên Thành	pr40847604	54.0	7.4	3	2	2	21.006671216757	105.948985802135	Gia Lâm	Hà Nội
Căn hộ chung cư tại Sky City Towers-88 Láng Hạ	pr42621378	145.5	14.55	3	3	2	21.01229060932506	105.8114454330294	Đống Đa	Hà Nội
Căn hộ chung cư tại Tòa nhà Vinaconex 1	pr42591506	146.0	8.8	3	2	2	21.002154798501028	105.79383165674044	Cầu Giấy	Hà Nội
Nhà riêng tại phường Hoàng Liệt	pr42439404	51.0	8.9	5	5	2	20.9613422257757	105.835770111831	Hoàng Mai	Hà Nội
Nhà riêng tại phố Trần Quốc Hoàn	pr42524974	36.0	12.0	5	5	2	21.0419205189255	105.786295320206	Cầu Giấy	Hà Nội
Nhà riêng tại phố Phương Mai	pr42322378	40.0	18.9	5	3	2	21.001374624079	105.839279410806	Đống Đa	Hà Nội
Nhà riêng tại đường Hồ Ba Mẫu	pr41741384	38.0	8.7	4	4	2	21.0125172308453	105.841447606777	Đống Đa	Hà Nội
Nhà riêng tại phố Hoàng Cầu	pr42655040	52.0	21.5	4	3	2	21.0164800655013	105.822791847869	Đống Đa	Hà Nội
Căn hộ chung cư tại The Manor - Hà Nội	pr42600732	100.0	8.2	3	2	2	21.01358738775066	105.77522922578868	Nam Từ Liêm	Hà Nội
Nhà riêng tại đường Nguyễn Đình Thi	pr38768935	46.5	10.8	4	5	2	21.0428672	105.8257076	Tây Hồ	Hà Nội
Nhà riêng tại đường Phú Xá	pr42108110	81.0	13.0	5	4	2	21.0903646746269	105.811633415766	Tây Hồ	Hà Nội
Nhà riêng tại phố Trần Đại Nghĩa	pr42649103	36.0	10.1	3	4	2	20.997555186969	105.846079973681	Hai Bà Trưng	Hà Nội
Nhà riêng tại đường Kim Giang	pr42310814	61.0	16.3	5	5	2	20.9829431163623	105.81537724154	Thanh Xuân	Hà Nội
Nhà riêng tại phố Dịch Vọng Hậu	pr41745383	52.0	8.0	8	5	2	21.0309911568617	105.786700919831	Cầu Giấy	Hà Nội
Nhà riêng tại phố Nguyễn Đổng Chi	pr42594558	52.0	14.1	4	4	2	21.0386844899986	105.764398349702	Nam Từ Liêm	Hà Nội
Căn hộ chung cư tại Park Kiara	pr42624728	108.0	9.9	3	2	2	20.96725357931717	105.75384835996064	Hà Đông	Hà Nội
Căn hộ chung cư tại The Terra Hào Nam	pr41866233	65.0	8.1	2	2	2	21.023597729179745	105.82691585258048	Đống Đa	Hà Nội
Nhà riêng tại đường Hồ Tùng Mậu	pr42581271	56.0	8.0	4	5	2	21.0382033921156	105.774128886801	Cầu Giấy	Hà Nội
Nhà riêng tại đường 32	pr42269422	107.0	17.9	1	1	2	21.0484034496515	105.744230278003	Bắc Từ Liêm	Hà Nội
Nhà riêng tại đường Chu Huy Mân	pr39622620	62.0	8.35	6	5	2	21.0384	105.9031263	Long Biên	Hà Nội
Căn hộ chung cư tại Khu đô thị Trung Hòa - Nhân Chính	pr42349696	113.7	8.1	3	2	2	21.0081624125001	105.80248953819996	Cầu Giấy	Hà Nội
Nhà riêng tại đường Hoàng Đạo Thành	pr42493386	63.0	17.9	4	4	2	20.9833215291952	105.81271947732	Thanh Xuân	Hà Nội
Nhà riêng tại phố Nguyễn Đổng Chi	pr42604581	35.0	7.2	5	5	2	21.0386215047428	105.764077095031	Nam Từ Liêm	Hà Nội
Nhà riêng tại phường Thạch Bàn	pr42643037	47.0	9.3	3	5	-1	21.0208578310528	105.917368687208	Long Biên	Hà Nội
Nhà riêng tại đường Tứ Hiệp	pr42582463	50.0	7.3	4	3	2	20.9483786	105.8461123	Thanh Trì	Hà Nội
Nhà riêng tại đường Nguyễn Sơn	pr42246675	55.0	10.5	3	2	2	21.0455877606142	105.880734524713	Long Biên	Hà Nội
Nhà riêng tại phố Phùng Chí Kiên	pr42298980	59.0	16.0	5	5	2	21.0431839226569	105.802525704623	Cầu Giấy	Hà Nội
Nhà riêng tại đường Kim Giang	pr42504321	38.0	7.9	4	3	2	20.9787127321767	105.82112990671	Hoàng Mai	Hà Nội
Nhà riêng tại phố Trung Kính	pr42593909	60.0	22.0	6	4	2	21.0116951040575	105.800997270477	Cầu Giấy	Hà Nội
Nhà riêng tại phố Vạn Phúc	pr42106593	41.0	10.3	7	4	2	20.9750527025106	105.786536071017	Hà Đông	Hà Nội
Nhà riêng tại đường Tây Sơn	pr41409706	75.0	11.0	4	3	2	21.0094322488284	105.824567835086	Đống Đa	Hà Nội
Căn hộ chung cư tại Hà Nội Melody Residences	pr42547511	143.0	9.724	3	3	1	20.9584675584082	105.82634439506252	Hoàng Mai	Hà Nội
Căn hộ chung cư tại Chung cư Sông Đà 7	pr42326441	135.0	7.85	4	2	2	21.0113184837817	105.795507721583	Cầu Giấy	Hà Nội
Nhà riêng tại đường Xuân La	pr42016075	70.0	13.5	4	5	2	21.0643998002473	105.806400863008	Tây Hồ	Hà Nội
Nhà mặt phố tại đường Âu Cơ	pr42638915	35.0	16.0	3	3	2	21.0624655608095	105.831981482722	Tây Hồ	Hà Nội
Nhà riêng tại phường Mỹ Đình 2	pr42592232	37.0	8.2	4	5	2	21.0321765312487	105.773978266295	Nam Từ Liêm	Hà Nội
Nhà riêng tại đường Nguyễn Lương Bằng	pr42599004	49.1	14.35	4	3	2	21.0162972396505	105.828517621624	Đống Đa	Hà Nội
Nhà mặt phố tại phố Thạch Cầu	pr40601669	120.0	18.85	2	1	2	21.0253361	105.8835528	Long Biên	Hà Nội
Nhà riêng tại đường Khuất Duy Tiến	pr42377104	51.0	19.8	4	6	2	20.9949673093284	105.80041012445	Thanh Xuân	Hà Nội
Nhà riêng tại đường Vũ Xuân Thiều	pr42557987	50.0	12.8	6	6	2	21.0347206402704	105.91935511742	Long Biên	Hà Nội
Căn hộ chung cư tại Sakura Tower	pr42603531	95.0	7.15	3	2	2	20.996928924542797	105.80933445550193	Thanh Xuân	Hà Nội
Căn hộ chung cư tại Bamboo Airways Tower	pr41113397	120.0	8.0	3	2	2	21.0344982147217	105.795516967773	Cầu Giấy	Hà Nội
Nhà riêng tại đường Văn Cao	pr41763013	75.0	11.5	5	4	2	21.0402064358644	105.816134747329	Ba Đình	Hà Nội
Nhà biệt thự, liền kề tại Khu đô thị Văn Khê	pr35686892	85.0	17.99	6	6	2	20.972505056090323	105.76160315129584	Hà Đông	Hà Nội
Nhà riêng tại đường Cổ Linh	pr42616069	55.0	7.1	2	1	2	21.0243986015468	105.902413141671	Long Biên	Hà Nội
Căn hộ chung cư tại Thống Nhất Complex	pr38911927	122.0	9.0	3	2	2	20.998047	105.80354	Thanh Xuân	Hà Nội
Nhà riêng tại phố Dịch Vọng Hậu	pr42572114	40.0	7.0	6	4	2	21.0310223054163	105.786139738515	Cầu Giấy	Hà Nội
Nhà riêng tại đường Nguyễn Thị Định	pr40966404	55.0	21.8	6	4	2	21.0100187025473	105.804565370179	Cầu Giấy	Hà Nội
Nhà biệt thự, liền kề tại đường Tư Đình	pr42532378	50.0	15.0	4	6	-1	21.0291134039342	105.884186308914	Long Biên	Hà Nội
Nhà mặt phố tại phường Ngọc Thụy	pr42631665	31.0	10.6	1	2	2	21.0591392770606	105.868578421934	Long Biên	Hà Nội
Căn hộ chung cư tại Sunshine City	pr40431524	104.0	9.2	3	2	2	21.09144401550293	105.78472137451172	Bắc Từ Liêm	Hà Nội
Nhà riêng tại đường Khuất Duy Tiến	pr42600539	39.0	17.2	3	3	2	21.0003654492752	105.796282642251	Thanh Xuân	Hà Nội
Nhà riêng tại phố Quan Nhân	pr42593360	46.0	14.2	4	4	2	21.0036179008136	105.810755939184	Thanh Xuân	Hà Nội
Căn hộ chung cư tại Hyundai Hillstate	pr17639451	136.0	8.0	3	2	2	20.963012073952942	105.77422150542972	Hà Đông	Hà Nội
Nhà mặt phố tại phố Quan Nhân	pr42463162	34.0	14.5	3	5	2	21.003515766475	105.811015755129	Thanh Xuân	Hà Nội
Căn hộ chung cư tại Hateco Laroma	pr42476500	137.0	18.0	3	2	2	21.020800922321577	105.80742960926854	Đống Đa	Hà Nội
Nhà riêng tại đường Phúc Lợi	pr42492536	46.0	7.5	4	4	2	21.038600795719	105.934535531912	Long Biên	Hà Nội
Nhà riêng tại đường Ngô Thì Nhậm	pr42594916	40.0	13.8	4	4	2	20.9687145128681	105.769476159664	Hà Đông	Hà Nội
Nhà riêng tại phố Thái Hà	pr42495907	50.0	8.0	5	3	2	21.0126396363863	105.82022033439	Đống Đa	Hà Nội
Nhà riêng tại đường Xuân La	pr42656354	54.0	21.5	4	6	2	21.0645625148189	105.805948027141	Tây Hồ	Hà Nội
Nhà riêng tại đường Đông Quan	pr42564553	78.0	14.5	3	3	2	21.0396485073249	105.803852858087	Cầu Giấy	Hà Nội
Nhà biệt thự, liền kề tại Khu đô thị Đại Kim	pr42278205	55.0	17.0	5	5	2	20.972607937225593	105.81951100317372	Hoàng Mai	Hà Nội
Căn hộ chung cư tại The Nelson Private Residences	pr41982099	106.0	15.0	3	3	1	21.0205515773621	105.819165975908	Ba Đình	Hà Nội
Nhà riêng tại đường Đầm Trấu	pr42161259	50.0	14.9	4	3	-1	21.0118489588499	105.86483254282	Hai Bà Trưng	Hà Nội
Nhà riêng tại đường Nguyễn Thượng Hiền	pr41925528	50.0	10.55	3	3	2	21.0188476772485	105.843231055813	Hai Bà Trưng	Hà Nội
Nhà mặt phố tại đường Trương Công Giai	pr42544448	45.0	22.0	4	4	2	21.0333700123158	105.790297280437	Cầu Giấy	Hà Nội
Nhà riêng tại phố Phố Vọng	pr42603727	75.0	13.95	5	4	2	20.9972501411173	105.84278377594	Hai Bà Trưng	Hà Nội
Nhà mặt phố tại đường Hoàng Văn Thái	pr42598233	36.0	15.9	4	3	2	20.9964963283842	105.826080447722	Thanh Xuân	Hà Nội
Nhà riêng tại đường Trần Hòa	pr41754717	122.0	19.9	5	2	2	20.9736403746593	105.821966287593	Hoàng Mai	Hà Nội
Căn hộ chung cư tại Tháp đôi Kepler Land	pr42591890	123.0	9.594	3	2	2	20.985213292720044	105.78051972041384	Hà Đông	Hà Nội
Căn hộ chung cư tại Discovery Complex	pr42647069	210.0	14.5	4	3	2	21.034465229859517	105.79497555040992	Cầu Giấy	Hà Nội
Căn hộ chung cư tại The Zei Mỹ Đình	pr42482154	91.0	7.2	2	2	2	21.03439816610653	105.7702004311161	Nam Từ Liêm	Hà Nội
Nhà mặt phố tại đường Đền Lừ	pr42554941	66.0	19.6	4	5	2	20.9848550341455	105.857740502711	Hoàng Mai	Hà Nội
Nhà riêng tại phố Hồng Tiến	pr42619072	47.0	10.2	3	3	2	21.0470582001007	105.871215797961	Long Biên	Hà Nội
Nhà riêng tại phường Nhân Chính	pr42617418	39.0	8.45	4	4	2	21.0019367313931	105.806329265855	Thanh Xuân	Hà Nội
Căn hộ chung cư tại Indochina Plaza Hanoi	pr42594018	198.0	18.0	4	3	2	21.03629364565403	105.78264574714689	Cầu Giấy	Hà Nội
Căn hộ chung cư tại Rivera Park Hà Nội	pr42483151	105.0	9.5	3	2	2	20.9987551062515	105.808603923663	Thanh Xuân	Hà Nội
Nhà riêng tại Tòa nhà văn phòng Transmeco	pr42521867	50.0	16.8	4	5	2	20.9987915356579	105.797744873655	Thanh Xuân	Hà Nội
Căn hộ chung cư tại Keangnam Hanoi Landmark Tower	pr42451721	118.0	9.5	3	2	2	21.01685981454887	105.78359972969449	Nam Từ Liêm	Hà Nội
Căn hộ chung cư tại Ha Do Park View	pr42273950	100.0	7.0	2	2	2	21.02762035956191	105.79370854327976	Cầu Giấy	Hà Nội
Nhà riêng tại phường Hà Cầu	pr42576382	38.0	9.5	3	3	2	20.9667109585426	105.774258393294	Hà Đông	Hà Nội
Căn hộ chung cư tại Thống Nhất Complex	pr42520245	88.0	7.5	3	2	2	20.9972332031996	105.803135404707	Thanh Xuân	Hà Nội
Nhà riêng tại đường Láng	pr42644735	47.0	16.8	4	6	2	21.0217950681102	105.801013518173	Đống Đa	Hà Nội
Căn hộ chung cư tại Sun Grand City	pr42586579	180.0	21.0	3	3	-1	21.0414284160117	105.824421992739	Tây Hồ	Hà Nội
Căn hộ chung cư tại Dolphin Plaza	pr41932737	180.0	12.2	4	3	2	21.03002798512369	105.77666300468036	Nam Từ Liêm	Hà Nội
Nhà riêng tại phố Hào Nam	pr42628759	59.0	7.9	3	4	-1	21.0275989854057	105.827627898732	Đống Đa	Hà Nội
Căn hộ chung cư tại Vinhomes D'Capitale	pr42604451	83.0	8.3	3	2	2	21.00585831552174	105.79440183862415	Cầu Giấy	Hà Nội
Nhà mặt phố tại đường Phạm Ngọc Thạch	pr42657178	35.0	11.0	4	4	2	21.0092007342583	105.834611812769	Đống Đa	Hà Nội
Nhà riêng tại Khu đô thị Đại Mỗ - Hà Nội	pr42254303	68.0	11.5	4	3	2	20.9926550419147	105.762237983609	Nam Từ Liêm	Hà Nội
Nhà riêng tại đường Nguyễn Thị Định	pr42518003	55.0	20.0	6	5	2	21.0099671337862	105.80431942141	Cầu Giấy	Hà Nội
Nhà riêng tại đường Nguyễn Chí Thanh	pr41815137	65.0	21.3	6	6	2	21.0207457647507	105.808766144152	Đống Đa	Hà Nội
Nhà riêng tại đường Nguyễn Chánh	pr42095881	60.0	18.7	6	4	2	21.0116942116166	105.792261815817	Cầu Giấy	Hà Nội
Nhà biệt thự, liền kề tại Khu đô thị Văn Khê	pr40759368	83.0	15.0	5	3	2	20.9746758424334	105.764337095215	Hà Đông	Hà Nội
Nhà riêng tại đường Phúc Đồng	pr42229859	62.0	16.8	3	3	2	21.0406432323808	105.89693705237	Long Biên	Hà Nội
Nhà riêng tại đường Cầu Giấy	pr42478845	35.0	7.15	3	2	2	21.0319787911427	105.799551520632	Cầu Giấy	Hà Nội
Nhà riêng tại đường Lĩnh Nam	pr42603457	35.0	7.25	3	4	2	20.9816523361686	105.879677296444	Hoàng Mai	Hà Nội
Nhà riêng tại đường Cầu Đơ	pr42575271	41.0	10.3	4	4	2	20.9680106536457	105.775776031113	Hà Đông	Hà Nội
Nhà riêng tại đường Hoàng Quốc Việt	pr42599750	51.0	14.3	5	4	2	21.0463372692562	105.799476256063	Cầu Giấy	Hà Nội
Nhà riêng tại đường Phúc Xá	pr42638770	72.0	7.2	2	2	2	21.045316538155	105.849410514575	Ba Đình	Hà Nội
Nhà riêng tại phường Thượng Thanh	pr42589959	90.0	18.5	2	2	0	21.0658548604895	105.888554099131	Long Biên	Hà Nội
Căn hộ chung cư tại Dolphin Plaza	pr42347060	186.0	12.0	4	3	2	21.030148767106176	105.77675320516872	Nam Từ Liêm	Hà Nội
Nhà riêng tại đường Đào Tấn	pr42401099	45.0	7.0	4	3	2	21.032243905494	105.808930247337	Ba Đình	Hà Nội
Nhà biệt thự, liền kề tại Happy Land 1-5 Đông Anh	pr42643001	80.0	9.5	6	5	2	21.168095586624823	105.84555623831837	Đông Anh	Hà Nội
Nhà riêng tại đường Tựu Liệt	pr42510626	65.0	16.4	6	4	2	20.9530334981851	105.83533474548	Thanh Trì	Hà Nội
Căn hộ chung cư tại D’. Le Roi Soleil	pr41163024	111.0	14.8	3	3	-1	21.060521936	105.823812167362	Tây Hồ	Hà Nội
Nhà riêng tại đường Ngọc Thụy	pr42651790	68.0	11.4	3	2	2	21.0497303060675	105.866699158773	Long Biên	Hà Nội
Căn hộ chung cư tại Vinhomes D'Capitale	pr42611811	110.0	9.3	3	2	2	21.005904845079115	105.79354570860508	Cầu Giấy	Hà Nội
Căn hộ chung cư tại 6th Element	pr41252958	87.0	7.8	2	2	2	21.05991711169789	105.80465908421908	Tây Hồ	Hà Nội
Nhà riêng tại phố Trần Quốc Hoàn	pr42589382	40.0	17.5	4	6	2	21.0416201639849	105.785125611411	Cầu Giấy	Hà Nội
Nhà riêng tại đường Thúy Lĩnh	pr42621674	70.0	8.0	3	3	2	20.9741840603464	105.894280440647	Hoàng Mai	Hà Nội
Nhà riêng tại đường Khương Đình 2	pr42583149	35.0	8.9	6	6	2	20.9953580595616	105.814370597864	Thanh Xuân	Hà Nội
Nhà riêng tại đường Tôn Thất Tùng	pr42597754	46.0	15.0	4	3	2	21.0022984731185	105.829980959191	Đống Đa	Hà Nội
Nhà riêng tại phố Ngọc Khánh	pr42192673	38.0	11.6	4	3	2	21.0289123412026	105.812551546946	Ba Đình	Hà Nội
Căn hộ chung cư tại Mỹ Đình Pearl	pr40995891	104.0	7.5	3	2	2	21.0124320983887	105.767395019531	Nam Từ Liêm	Hà Nội
Nhà riêng tại đường Ngọc Thụy	pr41860833	39.0	7.5	6	4	-1	21.050772354381	105.8669425815	Long Biên	Hà Nội
Nhà riêng tại đường Khương Trung	pr42460224	35.0	10.5	6	5	2	20.9958011697036	105.817261026443	Thanh Xuân	Hà Nội
Nhà riêng tại phố Việt Hưng	pr42572697	62.0	19.5	4	5	2	21.0524931988141	105.898836953281	Long Biên	Hà Nội
Nhà riêng tại đường Lãng Yên	pr42622952	35.0	10.5	4	5	2	21.0085906711943	105.865979127656	Hai Bà Trưng	Hà Nội
Căn hộ chung cư tại Sunshine City	pr42607454	86.0	7.0	3	2	2	21.084037203017715	105.79203901682996	Bắc Từ Liêm	Hà Nội
Căn hộ chung cư tại Times Tower Lê Văn Lương	pr38899438	107.3	8.2621	3	2	2	21.0026340484619	105.801559448242	Thanh Xuân	Hà Nội
Căn hộ chung cư tại Viha Complex	pr41575818	79.0	7.11	3	2	2	20.997587203979492	105.8038330078125	Thanh Xuân	Hà Nội
Căn hộ chung cư tại N03-T3&T4 Ngoại Giao Đoàn	pr42618366	131.0	12.0	3	2	2	21.064447221314452	105.7984234313434	Bắc Từ Liêm	Hà Nội
Nhà riêng tại đường Cầu Giấy	pr42604532	30.0	7.0	3	4	2	21.0348005649013	105.794358238879	Cầu Giấy	Hà Nội
Căn hộ chung cư tại Mipec Rubik 360	pr42420613	77.5	7.0	2	2	2	21.0364928540698	105.786417353291	Cầu Giấy	Hà Nội
Nhà riêng tại đường Đàm Quang Trung	pr42485322	45.0	8.6	3	4	2	21.0320226628626	105.90053638085	Long Biên	Hà Nội
Nhà riêng tại đường Giải Phóng	pr42580906	65.0	16.8	3	3	2	20.9837072043283	105.841188328597	Hoàng Mai	Hà Nội
Nhà riêng tại đường Hồng Hà	pr42573025	56.0	15.5	4	4	2	21.0442134415392	105.847384383767	Ba Đình	Hà Nội
Nhà riêng tại đường Mỹ Đình	pr41534538	56.0	8.68	3	3	2	21.0238201365857	105.773757153653	Nam Từ Liêm	Hà Nội
Nhà riêng tại đường Cát Linh	pr42594573	50.0	18.0	6	4	2	21.0289433617664	105.831069860947	Đống Đa	Hà Nội
Nhà riêng tại đường Kim Ngưu	pr42480894	69.0	9.7	4	5	2	21.0050342083489	105.861477600665	Hai Bà Trưng	Hà Nội
Nhà riêng tại đường Đại Từ	pr42550945	34.0	7.7	3	5	2	20.9714306659819	105.835527314235	Hoàng Mai	Hà Nội
Căn hộ chung cư tại Diamond Flower Tower	pr42502685	164.0	9.0	2	2	2	21.006183582400126	105.80312512030132	Thanh Xuân	Hà Nội
Nhà riêng tại đường Lạc Long Quân	pr42654987	32.0	8.6	4	6	2	21.0538672554086	105.80903848312	Cầu Giấy	Hà Nội
Nhà riêng tại đường Lạc Long Quân	pr42638093	40.0	11.5	6	4	2	21.0739732608399	105.813178461612	Tây Hồ	Hà Nội
Nhà riêng tại Chung cư cao tầng Trung Yên I	pr42572601	50.0	13.15	6	2	2	21.014572823149788	105.79589404656438	Cầu Giấy	Hà Nội
Nhà riêng tại đường Ô Chợ Dừa	pr42646766	32.0	12.8	3	3	2	21.0195038083256	105.828133999698	Đống Đa	Hà Nội
Nhà mặt phố tại đường Tựu Liệt	pr42571441	51.0	8.8	4	3	2	20.9532834816688	105.835223663755	Thanh Trì	Hà Nội
Nhà riêng tại đường Hoàng Ngân	pr42581712	31.0	7.5	5	4	-1	21.0087557499159	105.801303684408	Cầu Giấy	Hà Nội
Nhà riêng tại đường Trần Quang Diệu	pr42555994	51.0	16.2	4	4	2	21.0156059690426	105.824515018572	Đống Đa	Hà Nội
Nhà riêng tại đường Thịnh Quang	pr42284735	57.0	7.2	4	4	2	21.0083647	105.8180219	Đống Đa	Hà Nội
Nhà riêng tại đường Yên Hòa	pr41618964	56.0	9.7	5	5	2	21.0234874726463	105.795112315125	Cầu Giấy	Hà Nội
Căn hộ chung cư tại Viha Complex	pr41564082	72.0	7.056	2	2	2	20.9981408335488	105.803974726344	Thanh Xuân	Hà Nội
Nhà riêng tại đường Tam Trinh	pr42198522	56.5	14.5	8	5	2	20.973141183517	105.866580558561	Hoàng Mai	Hà Nội
Nhà riêng tại đường Tây Trà	pr42133086	50.0	9.0	2	1	2	20.9775189975507	105.883453683238	Hoàng Mai	Hà Nội
Nhà riêng tại đường Minh Khai	pr42572514	35.0	7.6	3	3	2	20.9949704035003	105.857198477654	Hai Bà Trưng	Hà Nội
Căn hộ chung cư tại N01-T6 Ngoại Giao Đoàn	pr42597086	134.0	11.926	3	2	0	21.064366250136946	105.79683917793822	Bắc Từ Liêm	Hà Nội
Nhà riêng tại đường Lạc Long Quân	pr42548813	69.0	10.9	5	3	2	21.0534241539341	105.808910071239	Cầu Giấy	Hà Nội
Nhà riêng tại phường Thổ Quan	pr42655486	45.0	7.4	5	4	2	21.0179840619509	105.833747865409	Đống Đa	Hà Nội
Căn hộ chung cư tại Roman Plaza	pr42613655	102.0	7.3	3	2	2	20.984257014917475	105.77692098735754	Nam Từ Liêm	Hà Nội
Nhà riêng tại phố Hàng Vải	pr42114570	40.0	11.5	4	4	2	21.035224786746	105.847119980811	Hoàn Kiếm	Hà Nội
Nhà riêng tại đường Lê Văn Hiến	pr42578620	50.0	8.5	4	4	2	21.0741323195602	105.774531318126	Bắc Từ Liêm	Hà Nội
Nhà biệt thự, liền kề tại Sơn Đồng Center	pr41030375	87.0	15.0	6	4	2	21.045561682224	105.703503557799	Hoài Đức	Hà Nội
Nhà riêng tại phố Thái Hà	pr42651094	45.0	18.5	6	4	2	21.0124981214084	105.820088891714	Đống Đa	Hà Nội
Nhà riêng tại phường Dương Nội	pr42631103	50.0	13.9	4	3	2	20.9821013347709	105.746171815274	Hà Đông	Hà Nội
Nhà riêng tại đường Kim Giang	pr42596058	55.0	10.45	8	6	2	20.9793474602166	105.821216635869	Hoàng Mai	Hà Nội
Nhà riêng tại đường Xuân Phương	pr42419799	38.0	7.5	4	5	2	21.0436992580902	105.737375264291	Nam Từ Liêm	Hà Nội
Nhà riêng tại đường Minh Khai	pr42633297	35.0	7.0	3	4	2	20.9950794927814	105.857038685997	Hai Bà Trưng	Hà Nội
Căn hộ chung cư tại Khu đô thị mới Resco	pr42474637	155.0	7.5	4	2	2	21.05896524625492	105.783027771371	Bắc Từ Liêm	Hà Nội
Căn hộ chung cư tại King Palace	pr42614248	124.0	9.0	3	2	1	21.0000328907397	105.815847459716	Thanh Xuân	Hà Nội
Căn hộ chung cư tại Vinhomes West Point	pr42217768	96.0	9.2	3	2	2	21.011668584404497	105.7863418577804	Nam Từ Liêm	Hà Nội
Nhà riêng tại phường Khương Đình	pr42575491	46.0	9.3	4	3	2	20.9896817216051	105.819924217913	Thanh Xuân	Hà Nội
Nhà mặt phố tại đường Đồng Me	pr42460137	58.0	21.5	6	6	2	21.0112267673383	105.777170189761	Nam Từ Liêm	Hà Nội
Nhà riêng tại đường Xuân La	pr42604549	35.0	7.0	3	4	2	21.0646699933614	105.806377657584	Tây Hồ	Hà Nội
Nhà riêng tại phố Thái Thịnh	pr42611406	55.0	12.5	4	2	2	21.0108677524807	105.818584801054	Đống Đa	Hà Nội
Nhà riêng tại đường Đàm Quang Trung	pr42284051	50.0	7.6	3	3	-1	21.0322164411167	105.900822708752	Long Biên	Hà Nội
Căn hộ chung cư tại Golden Park Tower	pr42615368	133.0	9.89	3	2	2	21.0267745681127	105.788349517789	Cầu Giấy	Hà Nội
Nhà riêng tại đường Nguyễn Viết Xuân	pr42342951	45.0	13.8	5	5	2	20.9705677967748	105.769610059027	Hà Đông	Hà Nội
Nhà riêng tại phố Quan Nhân	pr42583029	55.0	12.8	4	4	2	21.0030753211035	105.810926500029	Thanh Xuân	Hà Nội
Nhà riêng tại phường Mễ Trì	pr42640032	38.0	8.9	3	4	2	21.0040931222296	105.782628747025	Nam Từ Liêm	Hà Nội
Căn hộ chung cư tại Ha Do Park View	pr42586773	179.0	15.0	4	3	2	21.028043441512523	105.7931810324354	Cầu Giấy	Hà Nội
Nhà riêng tại đường Vương Thừa Vũ	pr41544416	45.0	12.9	3	4	2	20.9987760744555	105.822293480529	Thanh Xuân	Hà Nội
Nhà riêng tại đường Giang Văn Minh	pr40927344	36.6	8.6	3	4	2	21.0319037641299	105.826996091834	Ba Đình	Hà Nội
Nhà riêng tại phố Nguyễn Ngọc Vũ	pr42528885	59.0	12.0	5	4	2	21.0119897815155	105.808734650337	Cầu Giấy	Hà Nội
Nhà riêng tại đường Quan Hoa	pr42509602	36.0	14.6	4	6	2	21.0401364279898	105.806862591548	Cầu Giấy	Hà Nội
Nhà riêng tại đường Minh Khai	pr42560264	60.0	8.7	7	4	2	20.9947488775245	105.856451127525	Hai Bà Trưng	Hà Nội
Nhà riêng tại đường Hoàng Đạo Thành	pr40320865	60.0	12.8	4	6	2	20.9832866206883	105.812310651927	Thanh Xuân	Hà Nội
Nhà riêng tại đường Hoàng Quốc Việt	pr42423041	48.0	13.0	6	6	2	21.0459584480387	105.799509335384	Cầu Giấy	Hà Nội
Nhà riêng tại đường Nguyên Hồng	pr42613799	45.0	11.3	4	3	2	21.0213753453836	105.81204984503	Ba Đình	Hà Nội
Căn hộ chung cư tại Hyundai Hillstate	pr40591757	136.0	8.0	3	2	2	20.963668061819465	105.7737706610166	Hà Đông	Hà Nội
Căn hộ chung cư tại Iris Garden	pr42320518	185.0	13.0	4	3	2	21.0310908866011	105.760386351025	Nam Từ Liêm	Hà Nội
Căn hộ chung cư tại Vimeco II - Nguyễn Chánh	pr35560990	124.0	8.0	3	2	2	21.0096664428711	105.793746948242	Cầu Giấy	Hà Nội
Nhà riêng tại đường Lý Sơn	pr42428401	100.0	13.0	3	3	2	21.0616345708792	105.882296181266	Long Biên	Hà Nội
Nhà riêng tại đường An Thọ 1	pr42586981	59.0	15.2	1	1	2	21.007957834967	105.721890556872	Hoài Đức	Hà Nội
Nhà riêng tại xã Đông La	pr42652168	52.0	7.7	3	2	2	20.9690312239749	105.724219276083	Hoài Đức	Hà Nội
Căn hộ chung cư tại Chung cư M3 - M4 Nguyễn Chí Thanh	pr42303555	165.0	13.0	3	2	-1	21.020477320114185	105.80873577646726	Đống Đa	Hà Nội
Nhà riêng tại đường Nguyễn Khánh Toàn	pr42449379	50.0	16.0	4	5	2	21.0377996087619	105.800694251312	Cầu Giấy	Hà Nội
Nhà riêng tại đường Trịnh Văn Bô	pr42406404	44.0	10.4	5	4	2	21.0380015239524	105.746244740873	Nam Từ Liêm	Hà Nội
Căn hộ chung cư tại Times Tower Lê Văn Lương	pr31750691	100.0	7.5	3	2	1	21.0024528503418	105.801193237305	Thanh Xuân	Hà Nội
Căn hộ chung cư tại Trung tâm thương mại TSQ	pr42626330	176.0	8.2	4	2	2	20.978400777410094	105.78338730353197	Hà Đông	Hà Nội
Căn hộ chung cư tại The Matrix One	pr42432619	114.0	11.2	3	2	2	21.009252545397185	105.7735065514303	Nam Từ Liêm	Hà Nội
Căn hộ chung cư tại A10-A14 Nam Trung Yên	pr42503244	95.0	7.7	3	2	2	21.018982683635716	105.7876231563326	Cầu Giấy	Hà Nội
Nhà riêng tại phố Chùa Láng	pr42530057	45.0	11.2	4	4	2	21.0231072805806	105.806136812898	Đống Đa	Hà Nội
Nhà riêng tại đường Nguyễn Chí Thanh	pr42246828	58.0	18.3	8	6	2	21.0207965925735	105.808457534281	Đống Đa	Hà Nội
Nhà riêng tại đường Xuân La	pr42583050	54.0	15.5	6	5	2	21.0644559369592	105.806068607515	Tây Hồ	Hà Nội
Nhà riêng tại đường Ngọc Hà	pr42465114	36.0	8.38	4	5	2	21.0377599809302	105.830014557058	Ba Đình	Hà Nội
Nhà riêng tại đường Âu Cơ	pr41798174	38.0	9.0	2	4	2	21.0742485588919	105.824326538705	Tây Hồ	Hà Nội
Nhà riêng tại đường An Dương Vương	pr42001646	44.6	8.9	3	3	2	21.089818115903	105.804267848817	Tây Hồ	Hà Nội
Nhà riêng tại đường Bùi Xương Trạch	pr42631382	54.0	7.9	6	4	2	20.9870000114556	105.818413949514	Thanh Xuân	Hà Nội
Nhà riêng tại đường Trường Chinh	pr42644743	31.0	9.4	5	6	2	20.9987404798617	105.837443213907	Đống Đa	Hà Nội
Nhà biệt thự, liền kề tại Vinhomes Cổ Loa	pr42123973	63.0	16.8	5	4	2	21.11594769314381	105.87048965668444	Đông Anh	Hà Nội
Căn hộ chung cư tại Chung cư 187 Tây Sơn	pr42587243	131.0	9.5	3	2	2	21.014101713570454	105.82793127677944	Đống Đa	Hà Nội
Nhà riêng tại đường Kim Giang	pr42295370	60.0	12.9	4	4	2	20.9792613258279	105.82097635818	Hoàng Mai	Hà Nội
Nhà biệt thự, liền kề tại đường Cầu Lủ	pr42569715	75.0	19.5	4	4	2	20.9799832155608	105.819331339365	Hoàng Mai	Hà Nội
Nhà riêng tại đường Xuân La	pr42657767	38.0	12.4	3	4	2	21.0643331085886	105.805817571807	Tây Hồ	Hà Nội
Nhà riêng tại đường Đào Tấn	pr27561958	91.0	19.8	7	5	2	21.0325448	105.8089097	Ba Đình	Hà Nội
Căn hộ chung cư tại Goldmark City	pr42593530	159.0	10.0	4	2	2	21.044360071446253	105.76825828825224	Bắc Từ Liêm	Hà Nội
Căn hộ chung cư tại Times City	pr38992753	86.0	7.0	2	2	2	20.9947910308838	105.86784362793	Hai Bà Trưng	Hà Nội
Nhà riêng tại phường Bồ Đề	pr42593187	53.0	13.0	6	4	2	21.0384411644885	105.873063290943	Long Biên	Hà Nội
Nhà riêng tại đường Đức Giang	pr42567548	37.0	8.7	3	3	2	21.0665108207133	105.892076568435	Long Biên	Hà Nội
Nhà riêng tại đường Nguyễn Ngọc Nại	pr42627172	52.0	18.5	4	5	2	20.9991401348916	105.825797410776	Thanh Xuân	Hà Nội
Nhà riêng tại đường Bưởi	pr42339386	60.0	16.9	5	4	2	21.0390956008492	105.804009821054	Ba Đình	Hà Nội
Nhà riêng tại đường Thạch Bàn	pr42631950	45.0	7.45	6	3	-1	21.025218507689	105.908289730751	Long Biên	Hà Nội
Căn hộ chung cư tại Times City	pr38993110	110.0	8.5	3	2	2	20.9947910308838	105.86784362793	Hai Bà Trưng	Hà Nội
Nhà riêng tại phố Phùng Chí Kiên	pr42621684	56.0	16.5	4	3	2	21.0431968692259	105.802532972983	Cầu Giấy	Hà Nội
Nhà biệt thự, liền kề tại Hinode Royal Park	pr39313653	90.0	16.0	5	5	2	21.055948761689756	105.71543496032544	Hoài Đức	Hà Nội
Nhà riêng tại đường Kim Đồng	pr42616714	63.0	21.0	4	5	2	20.9838383720369	105.843111738403	Hoàng Mai	Hà Nội
Nhà riêng tại đường Dương Văn Bé	pr42651886	43.1	8.5	5	5	2	20.9949342215092	105.873673645332	Hai Bà Trưng	Hà Nội
Nhà biệt thự, liền kề tại xã Yên Mỹ	pr42602363	100.0	10.0	4	3	2	20.9409164342361	105.870358231934	Thanh Trì	Hà Nội
Nhà riêng tại đường Phố Lụa	pr42640114	44.0	8.8	3	4	2	20.9802105583799	105.774639201414	Hà Đông	Hà Nội
Căn hộ chung cư tại Royal City	pr42597705	130.0	10.5	3	2	2	21.002817649409923	105.81503916984356	Thanh Xuân	Hà Nội
Nhà riêng tại đường Thạch Bàn	pr42527745	80.0	9.7	1	1	2	21.0249442622697	105.907870494731	Long Biên	Hà Nội
Nhà riêng tại phố Hào Nam	pr42630893	30.0	8.26	4	5	2	21.0253323997187	105.827941079027	Đống Đa	Hà Nội
Nhà riêng tại phố Thái Hà	pr42650886	59.0	19.0	7	5	2	21.0125462012725	105.82006727654	Đống Đa	Hà Nội
Nhà riêng tại đường Xuân La	pr42636032	37.0	8.8	5	6	2	21.0646552731242	105.805823343873	Tây Hồ	Hà Nội
Nhà riêng tại đường Văn Phú	pr42521847	50.0	20.0	4	6	2	20.9619040611791	105.768158675789	Hà Đông	Hà Nội
Căn hộ chung cư tại Mỹ Đình Pearl	pr42511579	97.0	7.5	3	2	-1	21.01250858496169	105.76758956644508	Nam Từ Liêm	Hà Nội
Nhà mặt phố tại đường Phan Đình Giót	pr42374376	50.0	12.0	3	3	-1	20.9668551943338	105.764850680956	Hà Đông	Hà Nội
Nhà riêng tại đường Chu Văn An	pr42477726	75.0	15.5	5	5	2	20.9750548022192	105.777615482464	Hà Đông	Hà Nội
Nhà biệt thự, liền kề tại Vinhomes Wonder City	pr42534315	96.0	18.82	6	5	1	21.0961602587742	105.712115246547	Đan Phượng	Hà Nội
Căn hộ chung cư tại Chung cư The Wisteria	pr42464844	143.0	9.152	4	3	1	21.074437007573067	105.69843137203569	Hoài Đức	Hà Nội
Căn hộ chung cư tại The Emerald	pr38107912	132.0	8.5	4	3	2	21.0221614837646	105.771797180176	Nam Từ Liêm	Hà Nội
Nhà biệt thự, liền kề tại Vinhomes Wonder City	pr42638921	96.0	16.0	4	3	2	21.096985588683697	105.71202948037244	Đan Phượng	Hà Nội
Căn hộ chung cư tại Mandarin Garden	pr42185811	161.0	15.0	3	2	2	21.004901320193213	105.79869856834564	Cầu Giấy	Hà Nội
Nhà riêng tại phường Tân Mai	pr42589858	60.0	9.3	4	3	2	20.9817975504614	105.849099522355	Hoàng Mai	Hà Nội
Căn hộ chung cư tại Handico Complex	pr42503480	86.3	7.49084	3	2	2	21.0033298295588	105.802968631835	Thanh Xuân	Hà Nội
Nhà riêng tại phường Lê Đại Hành	pr42657301	45.0	17.7	8	4	2	21.0127678891283	105.846597056004	Hai Bà Trưng	Hà Nội
Nhà biệt thự, liền kề tại Sol Lake Villa	pr21156633	75.0	15.2	3	3	2	20.9599533611509	105.735199854473	Hà Đông	Hà Nội
Nhà riêng tại đường Nguyễn Cao	pr42117129	50.0	12.68	3	4	2	21.0120317074266	105.860810922561	Hai Bà Trưng	Hà Nội
Nhà riêng tại đường Xuân Đỉnh	pr42278629	65.0	17.0	6	4	2	21.0715200664248	105.794162886562	Bắc Từ Liêm	Hà Nội
Nhà mặt phố tại đường Lâm Tiên	pr42580758	60.0	13.5	4	3	2	21.1624748976508	105.851085242907	Đông Anh	Hà Nội
Nhà riêng tại đường Đào Tấn	pr42626086	44.0	8.7	6	5	2	21.0325335159302	105.809125981548	Ba Đình	Hà Nội
Nhà mặt phố tại Khu đô thị Đền Lừ II	pr42380929	42.0	17.2	3	4	2	20.98536822035735	105.8587558019872	Hoàng Mai	Hà Nội
Căn hộ chung cư tại Capital Elite	pr42499747	105.0	9.2	3	2	2	21.018553336833214	105.78167484323772	Nam Từ Liêm	Hà Nội
Nhà riêng tại đường Minh Khai	pr42626804	33.0	7.48	3	4	2	20.9946733158759	105.85665713273	Hai Bà Trưng	Hà Nội
Căn hộ chung cư tại Hyundai Hillstate	pr42626162	134.0	8.6	3	2	2	20.96363814828279	105.7737556784558	Hà Đông	Hà Nội
Căn hộ chung cư tại Dolphin Plaza	pr42573454	198.0	11.88	4	2	2	21.029929608489805	105.77683511527728	Nam Từ Liêm	Hà Nội
Nhà riêng tại đường Mạc Thái Tổ	pr42599585	50.0	22.0	4	3	2	21.0162228957904	105.788601379031	Cầu Giấy	Hà Nội
Nhà riêng tại đường Cầu Giấy	pr42167168	50.0	15.9	6	4	2	21.0299991811646	105.801486008192	Cầu Giấy	Hà Nội
Nhà riêng tại đường Phạm Văn Đồng	pr42350118	54.0	11.0	4	3	2	21.0702434501203	105.787375981279	Bắc Từ Liêm	Hà Nội
Nhà riêng tại đường Trương Định	pr42263541	69.0	8.0	4	5	2	20.9948139493466	105.849697067859	Hai Bà Trưng	Hà Nội
Nhà riêng tại đường Đào Tấn	pr42467657	36.0	7.5	3	4	2	21.032914081301	105.808803476914	Ba Đình	Hà Nội
Nhà riêng tại đường Tân Mai	pr42640770	40.0	10.9	3	4	2	20.9837320033656	105.850061571374	Hoàng Mai	Hà Nội
Nhà riêng tại phường Cát Linh	pr42624528	64.0	21.0	4	5	2	21.0284363905243	105.8283149143	Đống Đa	Hà Nội
Nhà riêng tại đường Ngọc Hà	pr42214996	42.0	8.9	4	4	2	21.0376947805479	105.830038213227	Ba Đình	Hà Nội
Nhà mặt phố tại Khu đô thị Mỗ Lao	pr42592971	46.0	9.9	3	3	2	20.982653398089212	105.78204237209872	Hà Đông	Hà Nội
Nhà riêng tại đường Tân Triều	pr42597998	60.0	17.35	4	3	2	20.9712332593277	105.800708945096	Thanh Trì	Hà Nội
Nhà riêng tại đường Thanh Am	pr42623390	61.0	10.5	4	4	2	21.0720581519187	105.900163574789	Long Biên	Hà Nội
Nhà riêng tại đường Phố Trạm	pr42644101	46.0	11.7	4	5	2	21.0262598586752	105.892964160963	Long Biên	Hà Nội
Nhà riêng tại đường Phố Trạm	pr42134897	56.0	16.8	4	5	2	21.0265602125578	105.893136034314	Long Biên	Hà Nội
Nhà riêng tại đường Lĩnh Nam	pr42591384	42.0	8.85	4	5	2	20.9819228654766	105.879687637461	Hoàng Mai	Hà Nội
Nhà riêng tại đường Ấp Tó	pr41934117	68.0	11.0	3	2	2	21.1607834112227	105.849723128768	Đông Anh	Hà Nội
Nhà riêng tại đường Nam Dư	pr42591417	37.0	8.3	3	4	2	20.9822592486786	105.886722579648	Hoàng Mai	Hà Nội
Nhà biệt thự, liền kề tại Khu đô thị mới Thịnh Liệt	pr42601272	65.0	16.8	4	5	2	20.97953707940231	105.85586906390448	Hoàng Mai	Hà Nội
Nhà riêng tại phố Bạch Mai	pr42608067	34.0	7.1	4	2	2	20.9978677059585	105.850435296675	Hai Bà Trưng	Hà Nội
Nhà riêng tại đường Tựu Liệt	pr42605160	50.0	8.4	4	4	2	20.9529162511117	105.83532462723	Thanh Trì	Hà Nội
Nhà riêng tại đường Đội Cấn	pr42643494	45.0	8.8	4	5	2	21.034901530184	105.825551423239	Ba Đình	Hà Nội
Nhà biệt thự, liền kề tại Khu đô thị Văn Khê	pr40601269	83.0	16.3	5	6	2	20.972412109375	105.761528015137	Hà Đông	Hà Nội
Nhà riêng tại phố Lê Gia Định	pr42606768	36.0	8.2	4	4	2	21.0109585443373	105.85430753525	Hai Bà Trưng	Hà Nội
Căn hộ chung cư tại Park Kiara	pr38252044	92.0	8.6	3	2	0	20.9673748016357	105.754013061523	Hà Đông	Hà Nội
Nhà mặt phố tại đường Trương Công Giai	pr42469007	35.0	16.5	2	2	2	21.0331617993265	105.790472344937	Cầu Giấy	Hà Nội
Căn hộ chung cư tại Richland Southern	pr42336716	123.0	8.0	3	2	2	21.0364748330064	105.788653599812	Cầu Giấy	Hà Nội
Nhà riêng tại đường Trịnh Đình Cửu	pr42576042	30.0	7.2	4	4	2	20.9818407437862	105.835033359562	Hoàng Mai	Hà Nội
Nhà riêng tại đường Nguyễn Văn Cừ	pr42104650	43.0	12.75	4	6	2	21.0437749885536	105.872365495914	Long Biên	Hà Nội
Nhà riêng tại đường Đào Tấn	pr41666965	39.0	7.0	3	3	2	21.0323815501608	105.809260051977	Ba Đình	Hà Nội
Nhà riêng tại đường Trường Chinh	pr42645611	70.0	13.9	4	5	2	20.99833340843	105.837554868295	Thanh Xuân	Hà Nội
Nhà biệt thự, liền kề tại Khu đô thị mới Văn Phú	pr42635156	105.0	20.95	5	5	2	20.95838990989648	105.7674351281168	Hà Đông	Hà Nội
Nhà riêng tại đường Đào Tấn	pr41457941	45.0	8.0	4	4	2	21.0324872175192	105.808906722359	Ba Đình	Hà Nội
Căn hộ chung cư tại Vinhomes Times City - Park Hill	pr42197498	109.5	9.9	3	2	-1	20.994251910657436	105.86746205946628	Hai Bà Trưng	Hà Nội
Nhà riêng tại phường Xuân Đỉnh	pr42650680	39.0	7.35	3	4	2	21.0753942675241	105.789411862483	Bắc Từ Liêm	Hà Nội
Nhà riêng tại đường Trần Khát Chân	pr42108387	35.0	7.66	5	5	2	21.0088053908486	105.863093781588	Hai Bà Trưng	Hà Nội
Nhà riêng tại đường Ngọc Hà	pr42604211	60.0	14.7	4	5	2	21.0376760858731	105.830262409804	Ba Đình	Hà Nội
Nhà mặt phố tại đường Tô Hiệu	pr42599965	52.0	20.99	4	6	2	20.9662782388944	105.776995266779	Hà Đông	Hà Nội
Nhà mặt phố tại đường Cổ Nhuế	pr42478932	45.0	14.2	3	4	2	21.0640612843058	105.779308030782	Bắc Từ Liêm	Hà Nội
Nhà riêng tại đường Vũ Trọng Phụng	pr42655267	35.0	9.8	3	4	2	20.9995959263176	105.808354726299	Thanh Xuân	Hà Nội
Nhà riêng tại đường Hoàng Mai	pr42510031	40.0	7.15	4	3	2	20.9885800382601	105.85683492381	Hoàng Mai	Hà Nội
Căn hộ chung cư tại Khu đô thị Nam Thăng Long - Ciputra	pr42631280	182.0	15.5	4	3	2	21.07364589762957	105.82396920738384	Tây Hồ	Hà Nội
Nhà riêng tại đường Phúc Lợi	pr42407054	72.6	21.8	4	5	-1	21.0384878946957	105.934962145683	Long Biên	Hà Nội
Nhà mặt phố tại đường Hưng Thịnh	pr42589691	99.0	19.0	3	3	2	20.9613664086571	105.865236796198	Hoàng Mai	Hà Nội
Căn hộ chung cư tại The Diamond Residence	pr39694851	120.0	13.2	3	2	1	21.0052261352539	105.805061340332	Thanh Xuân	Hà Nội
Nhà biệt thự, liền kề tại Sơn Đồng Center	pr42583749	88.0	15.0	6	4	2	21.045561682224	105.703503557799	Hoài Đức	Hà Nội
Căn hộ chung cư tại The Diamond Residence	pr39848164	144.0	13.0	4	3	-1	21.0052261352539	105.805061340332	Thanh Xuân	Hà Nội
Căn hộ chung cư tại Hoàng Thành Pearl	pr42161541	107.0	7.1	3	2	2	21.039409342955462	105.76140433740744	Nam Từ Liêm	Hà Nội
Nhà riêng tại đường An Dương	pr42262477	40.0	7.9	3	4	2	21.0537463396609	105.840075261933	Tây Hồ	Hà Nội
Nhà riêng tại đường Phúc Lợi	pr31277487	80.0	18.0	6	6	2	21.0387726	105.9346688	Long Biên	Hà Nội
Nhà riêng tại đường Dịch Vọng	pr42599280	37.0	7.2	3	3	2	21.0291836465896	105.782767755693	Cầu Giấy	Hà Nội
Nhà riêng tại phường Bách Khoa	pr42188087	38.0	8.45	4	5	2	21.0043254344171	105.846568142563	Hai Bà Trưng	Hà Nội
Nhà riêng tại đường Vũ Xuân Thiều	pr42541807	46.38	12.8	5	6	2	21.035302711053	105.919066762532	Long Biên	Hà Nội
Nhà riêng tại đường Phúc Diễn	pr42619060	51.0	9.2	4	3	2	21.0403068127079	105.758543934733	Bắc Từ Liêm	Hà Nội
Nhà riêng tại đường Bằng A	pr42627448	60.0	18.5	4	4	2	20.9620466219087	105.820514003853	Hoàng Mai	Hà Nội
Căn hộ chung cư tại Thống Nhất Complex	pr39874948	95.0	7.4	3	2	2	20.998046875	105.80354309082	Thanh Xuân	Hà Nội
Căn hộ chung cư tại Khu đô thị Việt Hưng	pr41723494	86.0	8.5	2	1	2	21.06269073486328	105.90833282470705	Long Biên	Hà Nội
Nhà riêng tại đường Lê Trọng Tấn	pr42621265	42.0	8.0	4	4	2	20.9682509550471	105.755081547454	Hà Đông	Hà Nội
Nhà riêng tại đường Ngọc Hà	pr42634210	60.0	15.5	5	5	2	21.0377077943066	105.829611076465	Ba Đình	Hà Nội
Nhà riêng tại phố Nguyễn Đổng Chi	pr42630336	35.0	7.4	3	4	2	21.0382246349975	105.76470014519	Nam Từ Liêm	Hà Nội
Căn hộ chung cư tại Hei Tower	pr42619465	103.0	7.2	3	2	2	21.003458991548772	105.8044025087462	Thanh Xuân	Hà Nội
Nhà riêng tại đường Lê Quang Đạo	pr41949074	34.0	7.8	3	4	2	21.0126788795004	105.770909224128	Nam Từ Liêm	Hà Nội
Căn hộ chung cư tại N05 - KDT Đông Nam Trần Duy Hưng	pr35050163	162.0	10.5	3	3	2	21.0069580078125	105.801078796387	Cầu Giấy	Hà Nội
Nhà riêng tại đường Trần Thái Tông	pr41696548	36.0	10.45	4	5	2	21.0318019509684	105.788459140089	Cầu Giấy	Hà Nội
Nhà riêng tại phường Khương Trung	pr42630583	60.0	18.5	6	5	2	20.9963253598715	105.822056693651	Thanh Xuân	Hà Nội
Nhà riêng tại đường Tây Sơn	pr42582460	40.0	11.3	3	4	2	21.0093969691436	105.824810235258	Đống Đa	Hà Nội
Nhà biệt thự, liền kề tại Khu đô thị Vân Canh	pr42535242	110.0	14.85	5	5	2	21.041926222025985	105.73162672297262	Hoài Đức	Hà Nội
Nhà riêng tại đường Lạc Long Quân	pr42531293	55.0	12.5	4	4	2	21.0535575908672	105.808761066862	Cầu Giấy	Hà Nội
Nhà riêng tại đường Phố Lụa	pr42635835	30.0	7.1	4	5	2	20.9800391246916	105.774444525002	Hà Đông	Hà Nội
Nhà riêng tại đường Tứ Liên	pr42571772	90.0	14.0	2	2	2	21.0694891297048	105.837792709338	Tây Hồ	Hà Nội
Nhà riêng tại đường Nguyễn Khánh Toàn	pr42479646	45.0	10.5	4	4	2	21.0376729505762	105.80074209505	Cầu Giấy	Hà Nội
Nhà riêng tại đường Bồ Đề	pr42601765	58.0	9.8	4	5	2	21.038058903177	105.87217611217	Long Biên	Hà Nội
Nhà riêng tại phường Đại Kim	pr42541156	60.0	9.8	5	3	2	20.9748675458188	105.82346056201	Hoàng Mai	Hà Nội
Căn hộ chung cư tại Sunshine Riverside	pr42631522	91.0	7.6	3	2	2	21.08398043120964	105.81147274227904	Tây Hồ	Hà Nội
Nhà riêng tại đường Nguyễn Văn Cừ	pr42471976	52.0	11.8	6	6	2	21.0441667241987	105.872156080492	Long Biên	Hà Nội
Nhà riêng tại đường Tam Trinh	pr42283531	62.0	10.8	6	5	2	20.9734889726623	105.866213552444	Hoàng Mai	Hà Nội
Căn hộ chung cư tại CTM Building - 139 Cầu Giấy	pr42429903	130.0	9.5	3	2	2	21.0317638727198	105.799073216446	Cầu Giấy	Hà Nội
Nhà riêng tại phố Nghĩa Dũng	pr42617811	40.0	8.4	3	4	2	21.047608178414	105.847332214884	Ba Đình	Hà Nội
Nhà riêng tại đường Thành Công	pr42387340	38.0	7.8	4	3	2	21.0220150300438	105.815600966054	Ba Đình	Hà Nội
Nhà riêng tại đường Hoa Bằng	pr42605625	55.0	8.6	2	2	2	21.0232874759687	105.793007773915	Cầu Giấy	Hà Nội
Căn hộ chung cư tại Viha Complex	pr40405001	97.0	8.9	3	3	1	20.9975872039795	105.803833007813	Thanh Xuân	Hà Nội
Căn hộ chung cư tại Imperia Cổ Loa	pr42632930	93.0	8.5	3	2	2	21.08698800574626	105.86757736198234	Đông Anh	Hà Nội
Căn hộ chung cư tại Chung cư Sông Đà 7	pr42142532	126.0	7.35	3	2	2	21.0112534146463	105.795355748287	Cầu Giấy	Hà Nội
Nhà riêng tại đường Mỹ Đình	pr42600460	30.0	7.5	3	3	2	21.0241476185754	105.77424781484	Nam Từ Liêm	Hà Nội
Nhà riêng tại đường Trâu Quỳ	pr42115000	80.0	8.9	4	2	2	21.0050517855957	105.936342484396	Gia Lâm	Hà Nội
Nhà riêng tại đường Khương Đình	pr42530160	48.0	13.8	4	5	2	20.990947201675	105.813167921962	Thanh Xuân	Hà Nội
Căn hộ chung cư tại Khu Ngoại Giao Đoàn	pr38004098	105.0	7.6	3	2	2	21.0658397674561	105.798149108887	Bắc Từ Liêm	Hà Nội
Nhà riêng tại đường Tam Trinh	pr42130570	62.0	8.2	3	2	2	20.9667178658349	105.865833945572	Hoàng Mai	Hà Nội
Căn hộ chung cư tại C37 Bộ Công An - Bắc Hà Tower	pr42597155	120.0	7.56	3	2	2	20.996613783956324	105.7938071130364	Nam Từ Liêm	Hà Nội
Căn hộ chung cư tại N04 - KĐT Đông Nam Trần Duy Hưng	pr37510757	127.0	10.0	3	2	2	21.0088787078857	105.800254821777	Cầu Giấy	Hà Nội
Nhà riêng tại phố Trần Điền	pr42591740	47.0	16.5	6	4	2	20.9910365010755	105.832084016865	Thanh Xuân	Hà Nội
Nhà mặt phố tại phố Đốc Ngữ	pr42604963	42.0	12.8	6	5	2	21.0420576592293	105.814067624933	Ba Đình	Hà Nội
Nhà riêng tại đường Đào Tấn	pr42579784	52.0	16.8	5	4	-1	21.0324592128412	105.809046023095	Ba Đình	Hà Nội
Căn hộ chung cư tại PentStudio	pr39742593	91.0	7.8	1	2	2	21.0638626214319	105.809090139149	Tây Hồ	Hà Nội
Căn hộ chung cư tại Sun Grand City	pr42574531	123.0	16.0	3	2	2	21.04105408733624	105.82600647710731	Tây Hồ	Hà Nội
Nhà riêng tại đường Ngọc Hà	pr42639024	58.0	15.5	5	6	2	21.0376681526302	105.829985977621	Ba Đình	Hà Nội
Căn hộ chung cư tại D’. Le Roi Soleil	pr26155362	146.0	14.6	3	3	2	21.0648994445801	105.827049255371	Tây Hồ	Hà Nội
Nhà riêng tại phố Vũ Tông Phan	pr42584076	50.5	10.7	5	5	2	20.9980930556783	105.817427457693	Thanh Xuân	Hà Nội
Nhà riêng tại đường Phố Lụa	pr42607243	40.0	7.0	4	3	2	20.979901556852	105.774345490802	Hà Đông	Hà Nội
Nhà riêng tại đường Mỹ Đình	pr41795334	59.0	7.9	4	4	2	21.0239594734161	105.774506197605	Nam Từ Liêm	Hà Nội
Nhà mặt phố tại phố Đặng Trần Côn	pr42598479	36.0	18.6	4	4	2	21.0272823212922	105.833172143782	Đống Đa	Hà Nội
Nhà riêng tại phố Yên Lạc	pr42622677	41.0	14.0	4	4	2	21.0004431509797	105.862941001629	Hai Bà Trưng	Hà Nội
Nhà riêng tại đường Thạch Bàn	pr42297650	45.0	9.0	4	4	2	21.0254407807394	105.907853005101	Long Biên	Hà Nội
Nhà mặt phố tại đường Tam Trinh	pr42542880	45.0	17.0	4	3	2	20.9732587874984	105.865866191347	Hoàng Mai	Hà Nội
Nhà riêng tại đường Vĩnh Hưng	pr42633461	50.0	9.65	4	4	2	20.9860065946737	105.876647161735	Hoàng Mai	Hà Nội
Nhà riêng tại đường Cổ Linh	pr42580307	60.0	15.0	8	5	2	21.024566528564	105.90270968691	Long Biên	Hà Nội
Nhà riêng tại phố Hồng Tiến	pr41415068	86.0	18.5	5	5	2	21.0391616661587	105.873302476213	Long Biên	Hà Nội
Nhà riêng tại phố Vũ Tông Phan	pr42578150	60.0	14.8	4	4	2	20.9980140891746	105.817203878315	Thanh Xuân	Hà Nội
Căn hộ chung cư tại The Zei Mỹ Đình	pr41391893	107.8	9.61	3	2	2	21.0344581604004	105.769653320313	Nam Từ Liêm	Hà Nội
Nhà riêng tại đường Nguyễn Văn Cừ	pr42163059	42.0	10.2	4	4	2	21.0437626410041	105.872756170276	Long Biên	Hà Nội
Nhà riêng tại Khu nhà ở Thạch Bàn	pr42600245	45.0	7.5	6	4	2	21.01983005923339	105.90676272381629	Long Biên	Hà Nội
Nhà riêng tại phường Vạn Phúc	pr42616171	55.0	11.0	6	3	2	20.9802145904159	105.771700890607	Hà Đông	Hà Nội
Nhà riêng tại đường Hoàng Văn Thái	pr42582406	55.0	19.2	4	3	2	20.996767800906	105.824627502359	Thanh Xuân	Hà Nội
Nhà riêng tại đường Mạc Thái Tổ	pr42607079	50.0	22.0	4	5	2	21.0165047263888	105.788734891378	Cầu Giấy	Hà Nội
Căn hộ chung cư tại Khu Ngoại Giao Đoàn	pr42641418	129.0	9.03	3	2	2	21.06537838511	105.797747315465	Bắc Từ Liêm	Hà Nội
Nhà riêng tại đường Nguyễn Văn Cừ	pr42653008	44.0	9.7	4	5	2	21.0497995734916	105.883190675361	Long Biên	Hà Nội
Nhà riêng tại phố Tôn Đức Thắng	pr42582112	40.0	11.3	5	5	2	21.0193695397886	105.830892388523	Đống Đa	Hà Nội
Nhà riêng tại đường Tứ Liên	pr42319942	65.0	18.5	4	5	2	21.0697734636394	105.837828916392	Tây Hồ	Hà Nội
Nhà riêng tại đường Nguyễn Văn Cừ	pr42624437	55.0	11.5	4	3	2	21.0439841100922	105.872341590677	Long Biên	Hà Nội
Nhà riêng tại đường Ngô Thì Nhậm	pr42121703	48.0	8.0	4	3	2	20.9686054947591	105.769479073703	Hà Đông	Hà Nội
Căn hộ chung cư tại Khu Ngoại Giao Đoàn	pr42607870	93.0	7.6	3	2	2	21.06569808135039	105.79762948239244	Bắc Từ Liêm	Hà Nội
Nhà mặt phố tại đường Quang Tiến	pr42487190	80.0	15.2	2	1	2	21.0013427972361	105.758293971242	Nam Từ Liêm	Hà Nội
Nhà mặt phố tại đường Nguyễn Văn Cừ	pr42479829	76.0	16.4	2	2	2	21.0435872539494	105.872348382752	Long Biên	Hà Nội
Nhà riêng tại đường Hoàng Mai	pr42647387	64.3	11.8	4	3	2	20.9885880621552	105.856699006256	Hoàng Mai	Hà Nội
Nhà riêng tại đường Minh Khai	pr42489520	63.0	11.0	5	5	2	21.003328774172	105.870103712818	Hai Bà Trưng	Hà Nội
Nhà riêng tại đường Đội Cấn	pr42633972	60.0	13.8	6	6	2	21.0349209052495	105.825272114698	Ba Đình	Hà Nội
Căn hộ chung cư tại PentStudio	pr42637158	76.0	7.2	1	2	2	21.064027068825915	105.80885273761804	Tây Hồ	Hà Nội
Nhà biệt thự, liền kề tại Tiểu khu đô thị mới Vạn Phúc	pr41914161	75.0	17.5	6	5	2	20.9811440839635	105.767882003553	Hà Đông	Hà Nội
Nhà riêng tại đường Mậu Lương	pr42169830	33.0	7.5	3	4	2	20.9584021553093	105.794922020805	Hà Đông	Hà Nội
Căn hộ chung cư tại Lumi Hanoi	pr42399257	194.4	17.1	4	3	1	21.012237702135344	105.73593061089348	Nam Từ Liêm	Hà Nội
Nhà riêng tại đường Phố Trạm	pr42298973	70.0	8.65	5	5	2	21.0262735735524	105.893259799812	Long Biên	Hà Nội
Nhà mặt phố tại phố Trần Cung	pr42640657	86.0	17.5	6	5	2	21.050346147797	105.789780072437	Cầu Giấy	Hà Nội
Căn hộ chung cư tại Chung cư Westlake Residential	pr42619299	53.0	7.42	1	1	1	21.083892408108913	105.80868652683886	Tây Hồ	Hà Nội
Nhà riêng tại đường Tam Trinh	pr42655306	66.5	8.8	3	2	2	20.9731915286796	105.866219241132	Hoàng Mai	Hà Nội
Nhà mặt phố tại đường Hoa Bằng	pr42538015	65.0	18.8	8	6	2	21.0233547552543	105.793734015345	Cầu Giấy	Hà Nội
Căn hộ chung cư tại Vinhomes Times City - Park Hill	pr42601103	110.0	11.0	3	2	2	20.99478917576213	105.86714050125518	Hai Bà Trưng	Hà Nội
Căn hộ chung cư tại Discovery Central	pr42633486	72.0	8.68	2	2	1	21.032798677521303	105.8313233958082	Ba Đình	Hà Nội
Căn hộ chung cư tại The Terra Hào Nam	pr42651075	90.0	11.7	3	2	2	21.02452412600036	105.82699441330598	Đống Đa	Hà Nội
Nhà biệt thự, liền kề tại Khu đô thị mới Văn Phú	pr42555941	50.0	22.0	4	3	2	20.95811982401032	105.76629086426357	Hà Đông	Hà Nội
Nhà riêng tại phường Việt Hưng	pr41000149	112.0	22.0	6	6	2	21.0559369248426	105.902102842701	Long Biên	Hà Nội
Nhà riêng tại Khu nhà ở Thạch Bàn	pr42646915	40.0	8.5	4	4	2	21.018957138180017	105.90640184509358	Long Biên	Hà Nội
Căn hộ chung cư tại D’. Le Roi Soleil	pr40990252	146.0	18.0	3	3	2	21.0658321380615	105.826507568359	Tây Hồ	Hà Nội
Nhà riêng tại đường Đản Dị	pr42566298	160.0	18.0	3	2	-1	21.1457934425354	105.857006981219	Đông Anh	Hà Nội
Nhà riêng tại phố Quan Nhân	pr42615783	52.0	12.8	4	4	2	21.0035191759658	105.810825449315	Thanh Xuân	Hà Nội
Căn hộ chung cư tại An Bình City	pr42576669	114.0	8.1	3	1	2	21.04969612008933	105.77864393543923	Bắc Từ Liêm	Hà Nội
Nhà biệt thự, liền kề tại Khu đô thị Văn Khê	pr42286869	50.0	16.8	4	5	2	20.972209530941	105.761306984099	Hà Đông	Hà Nội
Nhà riêng tại phố Trần Cung	pr42514105	86.0	17.5	6	4	2	21.0522077870672	105.788916237316	Bắc Từ Liêm	Hà Nội
Nhà riêng tại đường Xuân Thủy	pr42566331	40.0	10.0	5	4	-1	21.0364997745063	105.785629046092	Cầu Giấy	Hà Nội
Căn hộ chung cư tại The Terra An Hưng	pr42470360	140.0	8.9	4	3	2	20.972940024665416	105.756814247603	Hà Đông	Hà Nội
Nhà riêng tại đường Đội Cấn	pr42639196	39.0	8.7	3	4	2	21.035274778285	105.819150334913	Ba Đình	Hà Nội
Căn hộ chung cư tại Hà Nội Center Point	pr31155335	82.0	7.0	3	2	2	21.0048179626465	105.804672241211	Thanh Xuân	Hà Nội
Nhà mặt phố tại đường Thụy Phương	pr41932376	85.0	15.0	4	3	2	21.0915534923563	105.784983158727	Bắc Từ Liêm	Hà Nội
Căn hộ chung cư tại N04 - KĐT Đông Nam Trần Duy Hưng	pr42275407	116.0	10.0	3	2	2	21.0088164783485	105.800437427925	Cầu Giấy	Hà Nội
Nhà riêng tại đường Lê Đức Thọ	pr42185055	88.0	20.0	6	6	2	21.0235944546022	105.767454575609	Nam Từ Liêm	Hà Nội
Căn hộ chung cư tại Imperia Garden	pr42614138	79.0	7.3	3	2	2	20.99726334239202	105.80300123667944	Thanh Xuân	Hà Nội
Nhà riêng tại phường Xuân La	pr42655105	39.0	8.0	4	4	2	21.0623940131673	105.806981212823	Tây Hồ	Hà Nội
Căn hộ chung cư tại The Golden Palm Lê Văn Lương	pr42472672	105.0	9.5	3	3	2	21.006181921694303	105.80790133520584	Thanh Xuân	Hà Nội
Nhà biệt thự, liền kề tại đường Trịnh Văn Bô	pr42641242	100.0	21.5	5	5	2	21.0340091487862	105.752902303116	Nam Từ Liêm	Hà Nội
Căn hộ chung cư tại GoldSeason	pr41604004	105.0	7.0	3	2	2	20.994772	105.80613	Thanh Xuân	Hà Nội
Nhà riêng tại phố Khâm Thiên	pr42581267	42.0	14.3	3	6	2	21.0185984182949	105.838613502489	Đống Đa	Hà Nội
Nhà riêng tại đường Hoàng Mai	pr42611776	36.0	7.6	4	4	2	20.9882833040645	105.857149287422	Hoàng Mai	Hà Nội
Nhà riêng tại đường Trung Văn	pr40412891	70.0	18.0	5	5	2	20.9896224	105.7852105	Nam Từ Liêm	Hà Nội
Nhà riêng tại đường Quang Trung	pr42626546	41.0	10.9	4	3	2	20.968206947616	105.77268505231	Hà Đông	Hà Nội
Nhà biệt thự, liền kề tại Hateco Green City	pr42195761	130.0	22.0	5	5	2	21.03506663233213	105.74997540258852	Nam Từ Liêm	Hà Nội
Nhà riêng tại phường Thạch Bàn	pr41495916	34.2	8.89	3	4	2	21.0211091843058	105.917502325783	Long Biên	Hà Nội
Căn hộ chung cư tại Mipec Rubik 360	pr42326904	115.0	9.0	3	2	2	21.036656929568863	105.78639160218482	Cầu Giấy	Hà Nội
Nhà riêng tại phường Ngọc Lâm	pr42581949	35.0	8.65	3	4	-1	21.0463351800466	105.871914042983	Long Biên	Hà Nội
Căn hộ chung cư tại Goldmark City	pr42633079	110.0	7.2	3	2	2	21.044241556566877	105.76747567202034	Bắc Từ Liêm	Hà Nội
Căn hộ chung cư tại The Park Home	pr38388110	120.0	9.0	3	2	2	21.0295677185059	105.791877746582	Cầu Giấy	Hà Nội
Nhà biệt thự, liền kề tại Khu chức năng đô thị Ao Sào	pr42392019	70.0	19.5	5	4	2	20.975644362180056	105.8523023845795	Hoàng Mai	Hà Nội
Nhà riêng tại phố Hoàng Cầu	pr42624885	30.0	7.5	3	3	2	21.016178296607	105.822415091744	Đống Đa	Hà Nội
Căn hộ chung cư tại Dự án Học Viện Quốc Phòng	pr42618708	136.0	9.2	3	2	2	21.046399194012487	105.80032868726222	Tây Hồ	Hà Nội
Nhà riêng tại phường Vĩnh Tuy	pr42630546	50.0	9.2	5	4	-1	20.9988146879926	105.871942342373	Hai Bà Trưng	Hà Nội
Nhà mặt phố tại phường Trung Liệt	pr42603284	37.0	16.0	6	6	2	21.0112725429392	105.822266563911	Đống Đa	Hà Nội
Nhà riêng tại phố Phùng Chí Kiên	pr42588905	44.0	15.8	3	5	2	21.0434075416795	105.802544914912	Cầu Giấy	Hà Nội
Nhà mặt phố tại đường Minh Khai	pr42489449	44.6	10.0	3	3	2	20.9951009102565	105.856812314584	Hai Bà Trưng	Hà Nội
Nhà riêng tại đường Trương Định	pr42603171	31.0	8.3	1	1	2	20.9948715965239	105.849960133826	Hai Bà Trưng	Hà Nội
Nhà riêng tại đường Minh Khai	pr42651935	55.0	9.5	5	4	2	20.9946996074835	105.856903614867	Hai Bà Trưng	Hà Nội
Nhà biệt thự, liền kề tại Eurowindow Twin Parks	pr42384351	75.0	16.0	6	4	2	21.007438622198876	105.93768208451408	Gia Lâm	Hà Nội
Nhà riêng tại đường Trích Sài	pr42624887	88.0	13.5	4	4	2	21.0479122449671	105.814645190773	Tây Hồ	Hà Nội
Căn hộ chung cư tại Tháp đôi Kepler Land	pr42553769	103.0	7.9	3	2	2	20.985613554639748	105.78038593585664	Hà Đông	Hà Nội
Nhà mặt phố tại đường Đặng Tiến Đông	pr42632364	20.0	8.1	2	2	2	21.0142471028294	105.821758000704	Đống Đa	Hà Nội
Căn hộ chung cư tại HPC Landmark 105	pr42626010	143.0	7.3	4	2	-1	20.973752228553415	105.75903953046318	Hà Đông	Hà Nội
Nhà riêng tại đường 70	pr42583600	36.0	7.0	3	5	2	21.0040737565747	105.75000954214	Nam Từ Liêm	Hà Nội
Nhà biệt thự, liền kề tại Khu đô thị mới Văn Phú	pr42648527	80.0	18.9	6	6	2	20.9584233371974	105.76688560909491	Hà Đông	Hà Nội
Nhà riêng tại đường Kim Giang	pr42604080	47.0	9.8	3	4	2	20.9640411133014	105.818522899629	Thanh Trì	Hà Nội
Nhà riêng tại đường Miêu Nha	pr42621713	32.0	7.5	4	4	-1	21.0060355886508	105.74845020027	Nam Từ Liêm	Hà Nội
Nhà riêng tại đường Lê Quang Đạo	pr42612942	40.0	7.3	2	3	2	21.0120686459712	105.770790814832	Nam Từ Liêm	Hà Nội
Nhà riêng tại đường Nguyễn Xiển	pr42330426	62.0	12.9	6	4	2	20.9874911322146	105.806312544274	Thanh Xuân	Hà Nội
Nhà riêng tại đường Quang Trung	pr41534443	50.0	8.0	4	4	2	20.9683340458193	105.772559772217	Hà Đông	Hà Nội
Căn hộ chung cư tại Cầu Giấy Center Point	pr40240170	86.0	7.1	3	2	2	21.0322113037109	105.799697875977	Cầu Giấy	Hà Nội
Nhà riêng tại đường Nguyễn Ngọc Nại	pr42428608	45.0	15.99	4	5	2	20.9992303866313	105.825625848787	Thanh Xuân	Hà Nội
Nhà riêng tại đường Hà Trì	pr42632422	32.0	7.4	3	4	2	20.9643686539591	105.783427717005	Hà Đông	Hà Nội
Nhà mặt phố tại phố Thái Thịnh	pr42653009	55.0	22.0	7	5	2	21.0119993858348	105.817207716882	Đống Đa	Hà Nội
Nhà mặt phố tại đường Tô Hiệu	pr42651850	50.0	20.95	6	4	2	20.9663767488114	105.776935599803	Hà Đông	Hà Nội
Nhà riêng tại phố Bạch Mai	pr42581344	40.0	7.0	4	3	2	20.9983215743481	105.850541270898	Hai Bà Trưng	Hà Nội
Nhà riêng tại phố Pháo Đài Láng	pr42578835	45.0	16.0	4	5	2	21.0183500444804	105.804378108698	Đống Đa	Hà Nội
Căn hộ chung cư tại Chelsea Park	pr42467101	129.0	8.0	3	2	2	21.0185326877417	105.79283514176949	Cầu Giấy	Hà Nội
Nhà riêng tại đường Tô Vĩnh Diện	pr42088537	60.0	16.8	4	3	2	20.9998658849169	105.820641269965	Thanh Xuân	Hà Nội
Nhà mặt phố tại phố Văn Hội	pr42640982	52.0	8.8	6	6	2	21.0804397258699	105.773244670482	Bắc Từ Liêm	Hà Nội
Căn hộ chung cư tại Times City	pr38552144	95.0	7.3	3	2	2	20.99445475703529	105.8679447184388	Hai Bà Trưng	Hà Nội
Nhà riêng tại đường Mậu Lương	pr42228428	33.0	7.3	3	4	2	20.9582326595964	105.79448133074	Hà Đông	Hà Nội
Nhà riêng tại đường Trần Quang Diệu	pr42545844	50.0	15.6	4	4	2	21.0157150750732	105.824770782085	Đống Đa	Hà Nội
Căn hộ chung cư tại Vinhomes Times City - Park Hill	pr41203127	112.2	8.5	3	2	2	20.9943332672119	105.867561340332	Hai Bà Trưng	Hà Nội
Nhà riêng tại đường 19/5	pr42652444	33.0	7.0	5	5	2	20.9756920284977	105.788910565444	Hà Đông	Hà Nội
Nhà riêng tại phố Trần Cung	pr42582617	33.0	7.95	3	4	2	21.0499417502967	105.789760497223	Cầu Giấy	Hà Nội
Nhà riêng tại đường Giang Văn Minh	pr42627073	36.0	10.8	3	6	2	21.0334889033146	105.827170449794	Ba Đình	Hà Nội
Nhà riêng tại đường Nguyễn Khánh Toàn	pr42556083	61.0	13.8	7	4	2	21.0380694428674	105.800867270452	Cầu Giấy	Hà Nội
Căn hộ chung cư tại Mỹ Đình Pearl	pr41713722	96.0	7.5	3	2	2	21.012432098388672	105.76739501953124	Nam Từ Liêm	Hà Nội
Nhà riêng tại đường Nguyễn Khánh Toàn	pr42638003	35.0	12.9	4	5	2	21.0377051477336	105.800576055524	Cầu Giấy	Hà Nội
Căn hộ chung cư tại Roman Plaza	pr40732775	103.0	7.6	3	3	2	20.9843406677246	105.776809692383	Nam Từ Liêm	Hà Nội
Nhà riêng tại đường Cầu Giấy	pr42588452	48.0	7.8	6	5	2	21.0347608761018	105.794611819393	Cầu Giấy	Hà Nội
Nhà riêng tại đường Quang Trung	pr42592581	46.0	11.35	6	4	2	20.9685684756792	105.772304345572	Hà Đông	Hà Nội
Nhà riêng tại đường Ngô Gia Tự	pr42584817	55.0	10.3	4	4	2	21.0656169020687	105.898366343982	Long Biên	Hà Nội
Nhà riêng tại phố Trần Cung	pr42570744	46.0	7.3	4	4	2	21.0522671773579	105.789358265571	Bắc Từ Liêm	Hà Nội
Nhà riêng tại đường Đội Nhân	pr42609472	35.0	9.0	4	4	2	21.0410347502103	105.811427193735	Ba Đình	Hà Nội
Căn hộ chung cư tại Kosmo Tây Hồ	pr42633412	118.3	11.0	3	2	2	21.068765517762287	105.8025474086849	Bắc Từ Liêm	Hà Nội
Nhà mặt phố tại đường Nguyễn Lam	pr39399065	66.0	16.0	5	6	2	21.0400963	105.9056104	Long Biên	Hà Nội
Nhà riêng tại đường Lãng Yên	pr42623081	60.0	19.9	4	5	2	21.0089418653641	105.866111172811	Hai Bà Trưng	Hà Nội
Căn hộ chung cư tại Mỹ Đình Pearl	pr42126080	94.0	8.0	3	2	2	21.0119683552271	105.767590707832	Nam Từ Liêm	Hà Nội
Căn hộ chung cư tại Tòa nhà Vinaconex 1	pr42608746	115.0	7.0	3	2	2	21.00244933389374	105.79441243818816	Cầu Giấy	Hà Nội
Nhà riêng tại đường Tây Trà	pr42025596	48.0	9.0	1	1	2	20.9774261575004	105.883970184453	Hoàng Mai	Hà Nội
Căn hộ chung cư tại Lancaster Hà Nội	pr40605768	126.0	13.5	3	3	2	21.0288105010986	105.82356262207	Ba Đình	Hà Nội
Nhà mặt phố tại phố Láng Hạ	pr42625090	45.0	12.2	3	3	2	21.0084777132275	105.815372872761	Đống Đa	Hà Nội
Nhà riêng tại phố Khâm Thiên	pr42246888	30.8	8.2	2	4	2	21.0118428600175	105.837072665273	Đống Đa	Hà Nội
Nhà riêng tại đường Mỹ Đình 1	pr42600201	30.0	7.2	3	3	2	21.029552203938	105.775114983459	Nam Từ Liêm	Hà Nội
Căn hộ chung cư tại Lumi Hanoi	pr42291059	134.0	11.3	3	2	2	21.0116212514908	105.735275254822	Nam Từ Liêm	Hà Nội
Căn hộ chung cư tại The Ninety Complex	pr41815658	92.0	7.4	3	2	-1	21.004090150198422	105.81897028961126	Đống Đa	Hà Nội
Nhà riêng tại đường Đội Cấn	pr41011928	55.0	8.8	4	2	2	21.0364877047049	105.816632054793	Ba Đình	Hà Nội
Nhà riêng tại phố Bạch Mai	pr42579386	40.0	8.2	4	4	2	20.9977718302982	105.850140454246	Hai Bà Trưng	Hà Nội
Nhà riêng tại đường Yên Hòa	pr42431127	35.0	7.2	5	5	2	21.0233116596179	105.794543769808	Cầu Giấy	Hà Nội
Căn hộ chung cư tại Roman Plaza	pr40754508	150.0	9.5	4	3	2	20.9843406677246	105.776809692383	Nam Từ Liêm	Hà Nội
Nhà riêng tại đường Tân Phong	pr41935744	65.0	7.95	3	3	2	21.0811261198476	105.76827049056	Bắc Từ Liêm	Hà Nội
Nhà riêng tại đường Nguyễn Khánh Toàn	pr42636687	55.0	12.8	5	4	2	21.0375106433259	105.801012654197	Cầu Giấy	Hà Nội
Nhà riêng tại đường Yên Hòa	pr42355558	50.0	10.5	5	6	2	21.0232563077874	105.794797363272	Cầu Giấy	Hà Nội
Nhà riêng tại phố Vũ Tông Phan	pr42582778	55.0	12.3	6	4	2	20.9982238674097	105.817312317783	Thanh Xuân	Hà Nội
Nhà riêng tại phường Ngọc Thụy	pr42522278	47.0	13.5	3	3	2	21.0593813223708	105.868394943817	Long Biên	Hà Nội
Nhà mặt phố tại đường Mậu Lương	pr42573959	50.9	17.5	3	4	2	20.9583789548111	105.794527013174	Hà Đông	Hà Nội
Nhà riêng tại phường Yên Hòa	pr42616128	40.0	12.0	4	4	2	21.022579172691	105.795484500865	Cầu Giấy	Hà Nội
Nhà riêng tại đường Nguyễn Xiển	pr42222079	55.2	16.0	4	5	2	20.9871636599652	105.806252005379	Thanh Xuân	Hà Nội
Nhà riêng tại đường Đội Cấn	pr42625471	45.0	8.65	4	4	2	21.0347993488797	105.825585970024	Ba Đình	Hà Nội
