title	url_id	area	width	price	direction	number_of_bedrooms	number_of_toilets	furniture	legal	lat	lon	address	district	province
Bán đất tại đường Cự Khối	pr42328272	100 m²	5,5 m	14 tỷ					Sổ đỏ/ Sổ hồng	21.012756437778	105.910578262623	Đường Cự Khối, Phường Cự Khối, Long Biên, Hà Nội	Long Biên	Hà Nội
Bán đất tại xã Minh Quang	pr42657850	3.600 m²		11 tỷ					Sổ đỏ/ Sổ hồng	21.0672660943293	105.325731832496	Thôn Cốc Đồng Tâm, Xã Minh Quang, Ba Vì, Hà Nội.	Ba Vì	Hà Nội
Nhà biệt thự, liền kề tại phường Dương Nội	pr42607465	55 m²		15,5 tỷ				Đầy đủ	Sổ đỏ/ Sổ hồng	20.9818729730726	105.746310951226	Phường Dương Nội, Hà Đông, Hà Nội	Hà Đông	Hà Nội
Nhà biệt thự, liền kề tại Vinhomes Wonder City	pr42614924	96 m²	8 m	16,8 tỷ	Đông - Nam	5 phòng	3 phòng	Không nội thất	Hợp đồng mua bán	21.096562274466994	105.71204689509746	Dự án Vinhomes Wonder City, Xã Tân Hội, Đan Phượng, Hà Nội	Đan Phượng	Hà Nội
Nhà riêng tại đường Bồ Đề	pr41789075	80 m²		13,2 tỷ		3 phòng	3 phòng		Sổ đỏ	21.0379724924051	105.871921608991	Đường Bồ Đề, Phường Bồ Đề, Long Biên, Hà Nội	Long Biên	Hà Nội
Nhà riêng tại đường Nguyễn Lương Bằng	pr42637498	53 m²	8,7 m	7 tỷ					Sổ đỏ/ Sổ hồng	21.0163321313662	105.828295827271	Đường Nguyễn Lương Bằng, Phường Nam Đồng, Đống Đa, Hà Nội	Đống Đa	Hà Nội
Nhà riêng tại đường Hồng Hà	pr42392066	85 m²		29,5 tỷ						21.0442993550226	105.84720256925	Đường Hồng Hà, Phường Phúc Xá, Ba Đình, Hà Nội	Ba Đình	Hà Nội
Trang trại, khu nghỉ dưỡng tại đường 87A	pr42415566	2.100 m²		22 tỷ					Sổ đỏ/ Sổ hồng	21.0864325097247	105.403483726052	Đường 87A, Xã Vân Hòa, Ba Vì, Hà Nội	Ba Vì	Hà Nội
Bán đất tại đường Vân Canh	pr42626345	131 m²	13 m	30 tỷ					Sổ đỏ/ Sổ hồng	21.0358509481631	105.733119448928	Đường Vân Canh, Xã Vân Canh, Hoài Đức, Hà Nội	Hoài Đức	Hà Nội
Nhà riêng tại đường Yên Hòa	pr42566899	35 m²	4 m	8 tỷ		5 phòng	4 phòng	Đầy đủ	Sổ đỏ/ Sổ hồng	21.0232502264143	105.794804060888	Đường Yên Hòa, Phường Yên Hòa, Cầu Giấy, Hà Nội	Cầu Giấy	Hà Nội
Nhà riêng tại đường Nguyễn Chí Thanh	pr42522665	65 m²	5 m	16,5 tỷ		4 phòng	4 phòng	Đầy đủ	Sổ đỏ/ Sổ hồng	21.0210685056711	105.808493223334	Đường Nguyễn Chí Thanh, Phường Láng Thượng, Đống Đa, Hà Nội	Đống Đa	Hà Nội
Nhà biệt thự, liền kề tại Him Lam Thường Tín	pr42177890	80 m²	5,5 m	11 tỷ	Bắc	6 phòng	6 phòng	Không nội thất	Sổ đỏ/ Sổ hồng	20.8710734809205	105.862896065556	Him Lam Thường Tín, Trần Phú, Thường Tín, Thường Tín, Hà Nội	Thường Tín	Hà Nội
Nhà riêng tại phố Trung Kính	pr42382137	95 m²	5 m	27 tỷ		6 phòng	5 phòng	Đầy đủ	Sổ đỏ/ Sổ hồng	21.011778856325	105.801630101439	Phố Trung Kính, Phường Trung Hòa, Cầu Giấy, Hà Nội	Cầu Giấy	Hà Nội
Shophouse, nhà phố thương mại tại Him Lam Thường Tín	pr41455530	81 m²	5 m	15 tỷ	Đông - Nam	5 phòng	6 phòng		Sổ đỏ/ Sổ hồng	20.8715607362953	105.862752231038	Dự án Him Lam Thường Tín, Đường Trần Phú, Thị trấn Thường Tín, Thường Tín, Hà Nội	Thường Tín	Hà Nội
Nhà riêng tại đường Hồ Đắc Di	pr42657542	80 m²		12,8 tỷ		3 phòng	3 phòng		Sổ đỏ/ Sổ hồng	21.0120317980487	105.829219203335	Đường Hồ Đắc Di, Phường Nam Đồng, Đống Đa, Hà Nội	Đống Đa	Hà Nội
Nhà mặt phố tại đường Kim Giang	pr42642613	45 m²	4,4 m	16,5 tỷ					Sổ đỏ/ Sổ hồng	20.983109125977	105.815537119625	Đường Kim Giang, Phường Khương Đình, Thanh Xuân, Hà Nội	Thanh Xuân	Hà Nội
Căn hộ chung cư tại Mulberry Lane	pr42620937	146 m²		7,5 tỷ	Tây - Bắc	4 phòng	2 phòng	Đầy đủ	Sổ đỏ/ Sổ hồng	20.986585794806963	105.78566409721459	Mulberry Lane, Mỗ Lao, Hà Đông, Hà Nội	Hà Đông	Hà Nội
Bán đất tại đường Xuân Đỉnh	pr41311277	88 m²		11,97 tỷ					Sổ đỏ/ Sổ hồng	21.070975430768	105.794519734495	Đường Xuân Đỉnh, Phường Xuân Đỉnh, Bắc Từ Liêm, Hà Nội	Bắc Từ Liêm	Hà Nội
Nhà riêng tại đường Hoàng Quốc Việt	pr42654634	46 m²	4,5 m	17 tỷ		5 phòng	5 phòng	Không nội thất	Sổ đỏ/ Sổ hồng	21.046267314581	105.799749577815	Đường Hoàng Quốc Việt, Phường Nghĩa Đô, Cầu Giấy, Hà Nội	Cầu Giấy	Hà Nội
Căn hộ chung cư tại Viha Complex	pr41825566	97 m²		9,2 tỷ		3 phòng	3 phòng	Cơ bản	Hợp đồng mua bán	20.9975177172086	105.804383780412	Viha Complex, Số 107, Đường Nguyễn Tuân, Phường Thanh Xuân Trung, Thanh Xuân, Hà Nội	Thanh Xuân	Hà Nội
Nhà riêng tại đường Nguyễn Văn Cừ	pr42648565	35 m²		12,5 tỷ		3 phòng	4 phòng		Sổ đỏ/ Sổ hồng	21.0466207052601	105.877737462159	Đường Nguyễn Văn Cừ, Phường Long Biên, Long Biên, Hà Nội	Long Biên	Hà Nội
Bán đất tại đường Bùi Quốc Khái	pr42572683	90 m²	5 m	20 tỷ					Sổ đỏ/ Sổ hồng	20.9615899393322	105.821786655947	Đường Bùi Quốc Khái, Phường Hoàng Liệt, Hoàng Mai, Hà Nội	Hoàng Mai	Hà Nội
Nhà riêng tại đường Lê Trọng Tấn	pr42596871	65 m²	5 m	19,8 tỷ				Đầy đủ	Sổ đỏ/ Sổ hồng	20.9998480337274	105.827986540677	Đường Lê Trọng Tấn, Phường Khương Mai, Thanh Xuân, Hà Nội	Thanh Xuân	Hà Nội
Nhà riêng tại đường Phùng Khoang	pr42442503	90 m²		20,6 tỷ		25 phòng	26 phòng		Sổ đỏ/ Sổ hồng	20.9884523099314	105.793346145813	Đường Phùng Khoang, Phường Trung Văn, Nam Từ Liêm, Hà Nội	Nam Từ Liêm	Hà Nội
Nhà riêng tại đường Khuất Duy Tiến	pr42588350	52 m²	5,5 m	19,8 tỷ	Tây - Nam	5 phòng	7 phòng	Đầy đủ	Sổ đỏ/ Sổ hồng	20.9951648899318	105.800098745967	Đường Khuất Duy Tiến, Phường Thanh Xuân Bắc, Thanh Xuân, Hà Nội	Thanh Xuân	Hà Nội
Nhà biệt thự, liền kề tại The Eden Rose	pr42487238	82,5 m²	5 m	21,5 tỷ		4 phòng	5 phòng		Sổ đỏ/ Sổ hồng	20.966957463427242	105.81392058429587	Dự án The Eden Rose, Xã Thanh Liệt, Thanh Trì, Hà Nội	Thanh Trì	Hà Nội
Nhà riêng tại đường Định Công Thượng	pr42122413	41 m²	4 m	9,35 tỷ		4 phòng	5 phòng	Đầy đủ	Sổ đỏ/ Sổ hồng	20.9828556907307	105.821261091206	Đường Định Công Thượng, Phường Định Công, Hoàng Mai, Hà Nội	Hoàng Mai	Hà Nội
Nhà biệt thự, liền kề tại phố Nguyễn Khiêm Ích	pr42620688	90 m²	6 m	18,2 tỷ	Đông - Nam	5 phòng	5 phòng	Đầy đủ	Sổ đỏ/ Sổ hồng	21.0136238623344	105.939517187216	Phố Nguyễn Khiêm Ích, Thị trấn Trâu Quỳ, Gia Lâm, Hà Nội	Gia Lâm	Hà Nội
Nhà biệt thự, liền kề tại đường Ngọc Hà	pr42417860	116 m²		28,8 tỷ		3 phòng	3 phòng		Sổ đỏ/ Sổ hồng	21.0374785887283	105.829697657028	Đường Ngọc Hà, Phường Ngọc Hà, Ba Đình, Hà Nội	Ba Đình	Hà Nội
Nhà riêng tại đường Nguyên Hồng	pr41927886	51 m²	4 m	16,8 tỷ					Sổ đỏ/ Sổ hồng	21.0162802704358	105.809787386514	Đường Nguyên Hồng, Phường Láng Hạ, Đống Đa, Hà Nội	Đống Đa	Hà Nội
Nhà riêng tại đường Hoàng Hoa Thám	pr42491247	35 m²	4 m	7,5 tỷ		4 phòng	5 phòng	Cơ bản	Sổ đỏ/ Sổ hồng	21.0420966892547	105.817917979681	Ngõ 466, Đường Hoàng Hoa Thám, Phường Liễu Giai, Ba Đình, Hà Nội	Ba Đình	Hà Nội
Nhà riêng tại đường Đức Giang	pr42636367	35 m²		8,5 tỷ		3 phòng	5 phòng		Sổ đỏ/ Sổ hồng	21.0667741109018	105.891593915149	Đường Đức Giang, Phường Đức Giang, Long Biên, Hà Nội	Long Biên	Hà Nội
Căn hộ chung cư tại Chung cư Đông Đô	pr42601783	94,7 m²		7,25 tỷ	Tây	2 phòng	2 phòng	Đầy đủ	Sổ đỏ/ Sổ hồng	21.0499501418457	105.794929428449	Đông Đô, Đường Hoàng Quốc Việt, Phường Nghĩa Đô, Cầu Giấy, Hà Nội	Cầu Giấy	Hà Nội
Nhà riêng tại đường Cổ Nhuế	pr42491981	40 m²		7,3 tỷ		9 phòng	9 phòng	Nội thất: Nóng lạnh, điều hòa, tủ bếp, tủ lạnh, bàn ghế, giường tủ, đệm, máy giặt, máy sấy, khóa vân tay, wifi, thùng rác.	Sổ đỏ/ Sổ hồng	21.0642742578923	105.779649994263	Đường Cổ Nhuế, Phường Cổ Nhuế 2, Bắc Từ Liêm, Hà Nội	Bắc Từ Liêm	Hà Nội
Căn hộ chung cư tại Iris Garden	pr41602447	135 m²		7,6 tỷ	Tây - Bắc	3 phòng	2 phòng		Sổ đỏ/ Sổ hồng	21.0311622619629	105.760414123535	Dự án Iris Garden, Đường Trần Hữu Dực, Phường Cầu Diễn, Nam Từ Liêm, Hà Nội	Nam Từ Liêm	Hà Nội
Nhà riêng tại đường Thụy Khuê	pr42608715	48 m²	4 m	10,6 tỷ		6 phòng	4 phòng	Đầy đủ	Sổ đỏ/ Sổ hồng	21.0426210118859	105.823921119266	Đường Thụy Khuê, Phường Thụy Khuê, Tây Hồ, Hà Nội	Tây Hồ	Hà Nội
Nhà mặt phố tại đường Trần Đăng Ninh	pr34124071	42 m²	6 m	14 tỷ		8 phòng	5 phòng	Châu Âu.	Sổ đỏ hoa hậu	21.0387557	105.7922448	8 Đường Trần Đăng Ninh, Phường Dịch Vọng Hậu, Cầu Giấy, Hà Nội	Cầu Giấy	Hà Nội
Căn hộ chung cư tại Lumi Hanoi	pr41905789	136 m²		10,55 tỷ		4 phòng	3 phòng		Hợp đồng mua bán	21.0117948134741	105.735632766765	Dự án Lumi Hanoi, Đường Đại lộ Thăng Long, Phường Tây Mỗ, Nam Từ Liêm, Hà Nội	Nam Từ Liêm	Hà Nội
Bán đất tại đường Bát Khối	pr40737999	100 m²	9 m	10,7 tỷ					Sổ đỏ/ Sổ hồng.	21.012732	105.9049025	Đường Bát Khối, Phường Cự Khối, Long Biên, Hà Nội	Long Biên	Hà Nội
Bán đất tại đường Đại lộ Thăng Long	pr42535512	3.700 m²		10 tỷ	Bắc				Sổ đỏ/ Sổ hồng	20.9902174036566	105.520350533238	Đường Đại lộ Thăng Long, Xã Yên Bài, Ba Vì, Hà Nội	Ba Vì	Hà Nội
Nhà riêng tại Khu nhà ở Thạch Bàn	pr42648949	60 m²		14,6 tỷ					Sổ đỏ/ Sổ hồng	21.018713994865394	105.90649609633039	Thạch Bàn, Phường Thạch Bàn, Long Biên, Hà Nội	Long Biên	Hà Nội
Nhà riêng tại đường Võng Thị	pr42580095	50 m²	5 m	8,99 tỷ		4 phòng		Cơ bản	Sổ đỏ/ Sổ hồng	21.0512863012645	105.810732704337	đường Võng Thị, Phường Thụy Khuê, Tây Hồ, Hà Nội	Tây Hồ	Hà Nội
Nhà mặt phố tại đường Ngô Gia Tự	pr41858682	57 m²		7,9 tỷ					Sổ đỏ/ Sổ hồng	21.0654817065135	105.897787245829	Đường Ngô Gia Tự, Phường Đức Giang, Long Biên, Hà Nội	Long Biên	Hà Nội
Nhà riêng tại đường Ngọc Động	pr42641038	129 m²	8 m	10 tỷ		3 phòng		Cơ bản	Sổ đỏ/ Sổ hồng	20.9792445371004	105.941345569551	Đường Ngọc Động, Xã Đa Tốn, Gia Lâm, Hà Nội	Gia Lâm	Hà Nội
Bán đất tại đường Hàng Bột	pr42514520	60 m²		12,95 tỷ					Sổ đỏ/ Sổ hồng	21.0217708335006	105.829504330359	Đường Hàng Bột, Phường Hàng Bột, Đống Đa, Hà Nội	Đống Đa	Hà Nội
Nhà biệt thự, liền kề tại Vinhomes Ocean Park Gia Lâm	pr42478393	150 m²		25 tỷ					Sổ đỏ/ Sổ hồng	21.002424529674148	105.96366591957572	Dự án Vinhomes Ocean Park Gia Lâm, Xã Dương Xá, Gia Lâm, Hà Nội	Gia Lâm	Hà Nội
Bán đất tại xã Cổ Đông	pr42584683	152 m²	7,6 m	67 triệu/m²					Sổ đỏ/ Sổ hồng	21.0594349795483	105.515523728801	Xã Cổ Đông, Sơn Tây, Hà Nội	Sơn Tây	Hà Nội
Nhà mặt phố tại đường Trần Đăng Ninh	pr42622168	58 m²		28 tỷ					Sổ đỏ/ Sổ hồng	21.0387381422082	105.792265334198	Đường Trần Đăng Ninh, Phường Dịch Vọng, Cầu Giấy, Hà Nội	Cầu Giấy	Hà Nội
Nhà riêng tại phố Bạch Mai	pr42657252	60 m²	6,7 m	10,9 tỷ						20.998102597849	105.850705790611	Phố Bạch Mai, Phường Bạch Mai, Hai Bà Trưng, Hà Nội	Hai Bà Trưng	Hà Nội
Nhà riêng tại đường Thiên Hiền	pr42624662	58 m²	4 m	13,8 tỷ		4 phòng		Đầy đủ	Sổ đỏ/ Sổ hồng	21.0223825543777	105.776325878412	Đường Thiên Hiền, Phường Mỹ Đình 1, Nam Từ Liêm, Hà Nội	Nam Từ Liêm	Hà Nội
Nhà riêng tại đường Ô Cách	pr42612298	65 m²		12 tỷ		3 phòng	4 phòng		Sổ đỏ/ Sổ hồng	21.0600959191157	105.895881457151	Đường Ô Cách, Phường Đức Giang, Long Biên, Hà Nội	Long Biên	Hà Nội
Nhà riêng tại đường Trần Quang Diệu	pr42569283	66 m²		23,8 tỷ		3 phòng	3 phòng	Đầy đủ	Sổ đỏ/ Sổ hồng	21.0157309748788	105.824736846227	Đường Trần Quang Diệu, Phường Ô Chợ Dừa, Đống Đa, Hà Nội	Đống Đa	Hà Nội
Nhà riêng tại đường Nguyễn Trãi	pr42575365	58 m²		12 tỷ		6 phòng	6 phòng	Đầy đủ	Sổ đỏ/ Sổ hồng	20.9728686916288	105.779048277027	Đường Nguyễn Trãi, Phường Quang Trung, Hà Đông, Hà Nội	Hà Đông	Hà Nội
Nhà riêng tại đường Hoàng Công	pr42572771	50 m²	4 m	12,3 tỷ					Sổ đỏ	20.9501575027411	105.79058843924	Đường Hoàng Công, Phường Kiến Hưng, Hà Đông, Hà Nội	Hà Đông	Hà Nội
Nhà riêng tại đường Khuất Duy Tiến	pr42584204	40 m²	4,2 m	15,5 tỷ		4 phòng	4 phòng	Đầy đủ	Sổ đỏ/ Sổ hồng	20.9952079683355	105.800250660682	Đường Khuất Duy Tiến, Phường Thanh Xuân Bắc, Thanh Xuân, Hà Nội	Thanh Xuân	Hà Nội
Nhà riêng tại phố Hào Nam	pr42587804	50 m²	5 m	8 tỷ		3 phòng	4 phòng		Sổ đỏ/ Sổ hồng	21.027314179655	105.827778334746	Phố Hào Nam, Phường Cát Linh, Đống Đa, Hà Nội	Đống Đa	Hà Nội
Nhà biệt thự, liền kề tại Xuân Phương Residence	pr42530055	80 m²	4,6 m	17,8 tỷ				Cơ bản	Sổ đỏ/ Sổ hồng	21.0328376012254	105.754072887518	Xuân Phương Residence, Phường Phương Canh, Nam Từ Liêm, Hà Nội	Nam Từ Liêm	Hà Nội
Bán đất tại phố Nguyễn Khiêm Ích	pr42630917	109 m²	7,06 m	15,8 tỷ					Sổ đỏ/ Sổ hồng.	21.0136192196916	105.939429816057	Phố Nguyễn Khiêm Ích, Thị trấn Trâu Quỳ, Gia Lâm, Hà Nội	Gia Lâm	Hà Nội
Căn hộ chung cư tại Khu đô thị Mỹ Đình II	pr41684244	142 m²		8,2 tỷ		3 phòng	2 phòng			21.0315856933594	105.768203735352	Dự án Mỹ Đình II, Đường Hàm Nghi, Phường Mỹ Đình 2, Nam Từ Liêm, Hà Nội	Nam Từ Liêm	Hà Nội
Nhà riêng tại đường Trần Quang Diệu	pr42644761	55 m²	4,5 m	21,5 tỷ					Sổ đỏ/ Sổ hồng	21.0155190145855	105.824790697235	Đường Trần Quang Diệu, Phường Ô Chợ Dừa, Đống Đa, Hà Nội	Đống Đa	Hà Nội
Căn hộ chung cư tại Sunshine Green Iconic	pr39959331	169 m²		13,5 tỷ	Tây - Nam	3 phòng	4 phòng	Đầy đủ.	Hợp đồng mua bán	21.0407333374023	105.896560668945	Dự án Sunshine Green Iconic, Phường Phúc Đồng, Long Biên, Hà Nội	Long Biên	Hà Nội
Bán đất tại đường Phúc Lợi	pr39895251	220 m²	10 m	25,5 tỷ					Sổ đỏ/ Sổ hồng.	21.0387726	105.9346688	Đường Phúc Lợi, Phường Phúc Lợi, Long Biên, Hà Nội	Long Biên	Hà Nội
Nhà riêng tại đường Triều Khúc	pr42496920	50 m²	3,5 m	14 tỷ		5 phòng	6 phòng		Sổ đỏ/ Sổ hồng	20.9799524733521	105.80249454218	Đường Triều Khúc, Xã Tân Triều, Thanh Trì, Hà Nội	Thanh Trì	Hà Nội
Nhà riêng tại đường Cầu Giấy	pr42606438	80 m²		17 tỷ		22 phòng				21.0317652771964	105.799345047356	Đường Cầu Giấy, Phường Quan Hoa, Cầu Giấy, Hà Nội	Cầu Giấy	Hà Nội
Bán đất tại đường Liên Hà	pr42577991	111 m²	6 m	85 triệu/m²					Sổ đỏ/ Sổ hồng	21.152795629822	105.899730481411	Đường Liên Hà, Xã Liên Hà, Đông Anh, Hà Nội	Đông Anh	Hà Nội
Nhà riêng tại đường Hoàng Mai	pr42573460	54 m²	6,3 m	14,9 tỷ		14 phòng	14 phòng	Đầy đủ.	Sổ đỏ/ Sổ hồng	20.9886633973535	105.856449237458	Gốc Đề, Đường Hoàng Mai, Phường Hoàng Văn Thụ, Hoàng Mai, Hà Nội	Hoàng Mai	Hà Nội
Nhà riêng tại đường Trần Khát Chân	pr42473360	65 m²		12,9 tỷ		5 phòng				21.0093139417974	105.860150229624	Đường Trần Khát Chân, Phường Bạch Mai, Hai Bà Trưng, Hà Nội	Hai Bà Trưng	Hà Nội
Bán đất tại đường Ngô Xuân Quảng	pr42593679	65 m²	4,2 m	13,8 tỷ					Sổ đỏ/ Sổ hồng	21.0156653583703	105.936547240226	Đường Ngô Xuân Quảng, Thị trấn Trâu Quỳ, Gia Lâm, Hà Nội	Gia Lâm	Hà Nội
Nhà riêng tại đường Hoàng Như Tiếp	pr42405284	50 m²	6 m	9,1 tỷ		4 phòng	4 phòng	Đầy đủ.	Sổ đỏ/ Sổ hồng	21.0408433436199	105.877769329987	Đường Hoàng Như Tiếp, Phường Bồ Đề, Long Biên, Hà Nội	Long Biên	Hà Nội
Nhà riêng tại đường Dương Văn Bé	pr42573150	119 m²	7 m	12,6 tỷ					Sổ đỏ	20.995676432999	105.873807445774	Đường Dương Văn Bé, Phường Vĩnh Tuy, Hai Bà Trưng, Hà Nội	Hai Bà Trưng	Hà Nội
Nhà riêng tại đường Phúc Lợi	pr41789866	117 m²	10 m	19 tỷ		6 phòng	5 phòng	Đầy đủ		21.0388072186291	105.934620217152	Đường Phúc Lợi, Phường Phúc Lợi, Long Biên, Hà Nội	Long Biên	Hà Nội
Nhà biệt thự, liền kề tại Khu đô thị Thanh Hà Mường Thanh	pr32621783	300 m²		90 triệu/m²	Đông - Nam				Hợp đồng mua bán	20.938839438884052	105.78754040070527	Dự án Thanh Hà Mường Thanh, Phường Kiến Hưng, Hà Đông, Hà Nội	Hà Đông	Hà Nội
Nhà riêng tại phường Thịnh Liệt	pr42638174	70 m²	5,5 m	17,8 tỷ		6 phòng	6 phòng		Sổ đỏ/ Sổ hồng	20.9768093071434	105.847407838191	Phường Thịnh Liệt, Hoàng Mai, Hà Nội	Hoàng Mai	Hà Nội
Shophouse, nhà phố thương mại tại The Canopy Residences - Vinhomes Smart City	pr42008798	65 m²		13,5 tỷ					- Pháp lý: Sở hữu lâu dài.	21.0009128526062	105.739365722418	Dự án The Canopy Residences - Vinhomes Smart City, Phường Tây Mỗ, Nam Từ Liêm, Hà Nội.	Nam Từ Liêm	Hà Nội
Bán đất tại đường Nguyễn Văn Linh	pr40415136	79 m²	5,5 m	8,5 tỷ					Sổ đỏ/ Sổ hồng.	21.0282276	105.9199083	Đường Nguyễn Văn Linh, Phường Thạch Bàn, Long Biên, Hà Nội	Long Biên	Hà Nội
Bán đất tại đường Phú Mãn	pr41667959	420 m²		24 triệu/m²					Sổ đỏ/ Sổ hồng	20.94235770623	105.520900631637	Đường Phú Mãn, Xã Phú Mãn, Quốc Oai, Hà Nội	Quốc Oai	Hà Nội
Bán đất tại đường An Lạc	pr42607673	73 m²	6,5 m	105 triệu/m²	Tây - Nam				Sổ đỏ/ Sổ hồng.	21.0167387577077	105.92561703825	Đường An Lạc, Thị trấn Trâu Quỳ, Gia Lâm, Hà Nội	Gia Lâm	Hà Nội
Nhà riêng tại phố Vạn Phúc	pr42631578	50 m²		9 tỷ						20.9753745789736	105.786623231431	Phố Vạn Phúc, Phường Quang Trung, Hà Đông, Hà Nội	Hà Đông	Hà Nội
Bán đất tại xã Đại Áng	pr40702395	89,5 m²		8,3 tỷ					Sổ đỏ/ Sổ hồng.	20.9094601461538	105.824451438568	Xã Đại Áng, Huyện Thanh Trì, Hà Nội	Thanh Trì	Hà Nội
Nhà riêng tại đường Nguyễn Văn Cừ	pr42572425	70 m²		19 tỷ		4 phòng		Đầy đủ nội thất nhập khẩu.	Sổ đỏ/ Sổ hồng	21.049602988581	105.88343986278	Đường Nguyễn Văn Cừ, Phường Gia Thụy, Long Biên, Hà Nội	Long Biên	Hà Nội
Nhà biệt thự, liền kề tại Vinhomes Ocean Park Gia Lâm	pr42581193	70,8 m²	5,9 m	19 tỷ	Đông - Nam			Không nội thất	Sổ đỏ/ Sổ hồng	21.00211283509949	105.96344511261314	Dự án Vinhomes Ocean Park Gia Lâm, Đường Ngọc Trai 6, Xã Dương Xá, Gia Lâm, Hà Nội	Gia Lâm	Hà Nội
Bán đất tại đường Du Nội	pr42517985	120 m²	6 m	11,4 tỷ					Sổ đỏ/ Sổ hồng	21.0893757883695	105.896097750565	Đường Du Nội, Xã Mai Lâm, Đông Anh, Hà Nội	Đông Anh	Hà Nội
Bán đất tại đường Phương Nhị	pr41478762	60 m²	8 m	7,4 tỷ	Đông - Nam				Sổ đỏ/ Sổ hồng	20.9087138145547	105.858017554855	Đường Phương Nhị, Xã Liên Ninh, Thanh Trì, Hà Nội	Thanh Trì	Hà Nội
Bán đất tại xã Vân Canh	pr42617637	59 m²	5 m	10 tỷ					Sổ đỏ/ Sổ hồng	21.0303982248252	105.732204283487	Xã Vân Canh, Hoài Đức, Hà Nội	Hoài Đức	Hà Nội
Căn hộ chung cư tại A10-A14 Nam Trung Yên	pr42316753	95 m²		7,5 tỷ	Tây	3 phòng	2 phòng		Đã có sổ đỏ	21.019292138136525	105.78781898027975	Dự án A10-A14 Nam Trung Yên, Phường Yên Hòa, Cầu Giấy, Hà Nội	Cầu Giấy	Hà Nội
Bán đất tại đường Đàm Quang Trung	pr42632088	66 m²	5,1 m	8,5 tỷ	Tây - Nam				Sổ đỏ/ Sổ hồng	21.0321265576182	105.900815086132	Đường Đàm Quang Trung, Phường Long Biên, Long Biên, Hà Nội	Long Biên	Hà Nội
Nhà riêng tại đường Hoàng Mai	pr42491728	53,5 m²	6,3 m	14,89 tỷ		14 phòng	14 phòng	Đầy đủ	Sổ đỏ/ Sổ hồng	20.988523107768	105.856932835604	Đường Hoàng Mai, Phường Hoàng Văn Thụ, Hoàng Mai, Hà Nội	Hoàng Mai	Hà Nội
Nhà biệt thự, liền kề tại Khu đô thị Đại Kim	pr42303671	68 m²	6 m	20,5 tỷ		5 phòng	5 phòng	Đầy đủ.	Sổ đỏ/ Sổ hồng	20.9725133882724	105.819882478659	Khu đô thị Đại Kim, Nghiêm Xuân Yêm, Đại Kim, Hoàng Mai, Hà Nội	Hoàng Mai	Hà Nội
Nhà riêng tại phố Trần Cung	pr42593970	85 m²	5 m	17 tỷ		6 phòng	5 phòng		Sổ đỏ/ Sổ hồng	21.0521132948133	105.788977399241	Phố Trần Cung, Phường Cổ Nhuế 1, Bắc Từ Liêm, Hà Nội	Bắc Từ Liêm	Hà Nội
Nhà riêng tại đường Lê Quang Đạo	pr42596790	50 m²	4,56 m	8,5 tỷ		10 phòng	10 phòng	Đầy đủ	Sổ đỏ/ Sổ hồng	21.017714186323	105.767415450933	Đường Lê Quang Đạo, Phường Mỹ Đình 1, Nam Từ Liêm, Hà Nội	Nam Từ Liêm	Hà Nội
Nhà riêng tại đường Âu Cơ	pr42030766	90 m²	6 m	19,5 tỷ		20 phòng	20 phòng	Đầy đủ	Sổ đỏ/ Sổ hồng	21.0742444773799	105.824113653476	Đường Âu Cơ, Phường Nhật Tân, Tây Hồ, Hà Nội	Tây Hồ	Hà Nội
Căn hộ chung cư tại N04B Ngoại Giao Đoàn	pr42575367	99,6 m²		9 tỷ		2 phòng	2 phòng	Đầy đủ	Sổ đỏ/ Sổ hồng	21.065461927910057	105.80150240096393	Dự án N04B Ngoại Giao Đoàn, Phường Xuân Đỉnh, Bắc Từ Liêm, Hà Nội	Bắc Từ Liêm	Hà Nội
Nhà riêng tại đường Đặng Tiến Đông	pr42617120	90 m²		25,5 tỷ						21.0142248156269	105.821808212391	Đường Đặng Tiến Đông, Phường Trung Liệt, Đống Đa, Hà Nội	Đống Đa	Hà Nội
Nhà riêng tại phố Nghĩa Đô	pr42623783	64 m²	4,5 m	24,7 tỷ		5 phòng	4 phòng	Đầy đủ	Sổ đỏ/ Sổ hồng	21.0483102141437	105.795378308726	Phố Nghĩa Đô, Phường Nghĩa Đô, Cầu Giấy, Hà Nội	Cầu Giấy	Hà Nội
Bán đất tại đường Cửu Việt	pr41601434	75 m²		8,35 tỷ					Sổ đỏ/ Sổ hồng.	21.0086708914908	105.937063609887	Đường Cửu Việt, Thị trấn Trâu Quỳ, Gia Lâm, Hà Nội	Gia Lâm	Hà Nội
Nhà riêng tại phố Bạch Mai	pr42603777	65 m²		14,48 tỷ	Nam	12 phòng	12 phòng	Đầy đủ	Sổ đỏ/ Sổ hồng	20.9977663871922	105.850602542983	Phố Bạch Mai, Phường Bách Khoa, Hai Bà Trưng, Hà Nội	Hai Bà Trưng	Hà Nội
Căn hộ chung cư tại Iris Garden	pr42475486	135 m²		7,5 tỷ	Tây	3 phòng	2 phòng	Đầy đủ		21.0317805512488	105.760874220403	Iris Garden, Trần Hữu Dực, Cầu Diễn, Nam Từ Liêm, Hà Nội	Nam Từ Liêm	Hà Nội
Nhà riêng tại đường Nguyễn Đình Hoàn	pr42503050	40 m²	4,3 m	15,8 tỷ		3 phòng	4 phòng	Cơ bản	Sổ đỏ/ Sổ hồng	21.0429488435816	105.805067966484	Đường Nguyễn Đình Hoàn, Phường Nghĩa Đô, Cầu Giấy, Hà Nội	Cầu Giấy	Hà Nội
Nhà riêng tại đường Đền Lừ	pr42376850	37,4 m²	6,2 m	19 tỷ		5 phòng	5 phòng	Đầy đủ.	Sổ đỏ/ Sổ hồng	20.9849323099361	105.857868259932	Đường Đền Lừ, Phường Mai Động, Hoàng Mai, Hà Nội	Hoàng Mai	Hà Nội
Bán đất tại xã Lại Yên	pr42320788	60,6 m²		117 triệu/m²						21.0280922453895	105.711423122859	Xã Lại Yên, Hoài Đức, Hà Nội	Hoài Đức	Hà Nội
Nhà riêng tại phố Nghĩa Dũng	pr42631781	43 m²	6,56 m	8,8 tỷ		4 phòng	4 phòng		Sổ đỏ/ Sổ hồng	21.0476583800261	105.847563497844	Phố Nghĩa Dũng, Phường Phúc Xá, Ba Đình, Hà Nội	Ba Đình	Hà Nội
Nhà biệt thự, liền kề tại Sunny Garden City	pr42525075	180 m²		17,25 tỷ					Sổ đỏ/ Sổ hồng	21.0132770574411	105.641150827822	Dự án Sunny Garden City, Xã Sài Sơn, Quốc Oai, Hà Nội	Quốc Oai	Hà Nội
Căn hộ chung cư tại Sunshine Green Iconic	pr42602330	156 m²		12,99 tỷ	Tây - Bắc	3 phòng	3 phòng	Không nội thất	Hợp đồng mua bán	21.040780234182	105.895642894351	Sunshine Green Iconic, Phúc Đồng, Long Biên, Hà Nội	Long Biên	Hà Nội
Nhà riêng tại đường Ngọc Hà	pr42641757	58 m²	7 m	15,49 tỷ		5 phòng	5 phòng	Đầy đủ	Sổ đỏ/ Sổ hồng	21.0361022698592	105.831268885565	Đường Ngọc Hà, Phường Đội Cấn, Ba Đình, Hà Nội	Ba Đình	Hà Nội
Bán đất tại đường Bồ Đề	pr41405592	110 m²	6,5 m	15 tỷ					Sổ đỏ/ Sổ hồng.	21.0379900801157	105.872236580638	Đường Bồ Đề, Phường Bồ Đề, Long Biên, Hà Nội	Long Biên	Hà Nội
Nhà biệt thự, liền kề tại phường Thịnh Liệt	pr42624069	65 m²	5 m	15 tỷ		6 phòng	4 phòng	Không nội thất	Sổ đỏ/ Sổ hồng	20.9770480046058	105.847117234431	Phường Thịnh Liệt, Hoàng Mai, Hà Nội	Hoàng Mai	Hà Nội
Nhà riêng tại đường Nguyễn Văn Linh	pr42572171	50 m²		11,6 tỷ		4 phòng	4 phòng	Đầy đủ	Sổ đỏ/ Sổ hồng	21.0303577274462	105.914316912438	Đường Nguyễn Văn Linh, Phường Sài Đồng, Long Biên, Hà Nội	Long Biên	Hà Nội
Nhà riêng tại đường Tư Đình	pr42412337	86 m²	4,35 m	14,5 tỷ		1 phòng	1 phòng		Sổ đỏ/ Sổ hồng	21.0286785839772	105.883818452958	Đường Tư Đình, Phường Long Biên, Long Biên, Hà Nội	Long Biên	Hà Nội
Nhà biệt thự, liền kề tại Khu đô thị mới Tân Tây Đô	pr42617816	91,5 m²	5 m	15 tỷ	Đông - Nam	4 phòng	4 phòng	Không nội thất	Sổ đỏ/ Sổ hồng	21.07437555021234	105.7004879836154	Dự án Tân Tây Đô, Đường Quốc lộ 32, Xã Tân Lập, Đan Phượng, Hà Nội	Đan Phượng	Hà Nội
Nhà riêng tại đường Nguyễn Khang	pr42645121	65 m²	5 m	17 tỷ		4 phòng	3 phòng	Cơ bản	Sổ đỏ/ Sổ hồng	21.0273982212955	105.798263817835	Đường Nguyễn Khang, Phường Yên Hòa, Cầu Giấy, Hà Nội	Cầu Giấy	Hà Nội
Nhà riêng tại đường Nguyên Hồng	pr42642113	35 m²	5,1 m	16,2 tỷ		3 phòng	3 phòng	Cơ bản	Sổ đỏ/ Sổ hồng	21.0159661528127	105.80962554928	Đường Nguyên Hồng, Phường Láng Hạ, Đống Đa, Hà Nội	Đống Đa	Hà Nội
Bán đất tại đường Bát Khối	pr40761563	67 m²		9,5 tỷ					Sổ đỏ/ Sổ hồng.	21.012732	105.9049025	Đường Bát Khối, Phường Cự Khối, Long Biên, Hà Nội	Long Biên	Hà Nội
Kho, nhà xưởng tại Cụm công nghiệp Kim Bài	pr40866002	2.500 m²	30 m	7,9 triệu/m²	Tây - Nam					20.855663	105.76679	Cụm công nghiệp Kim Bài, Đường 21B, Thị trấn Kim Bài, Thanh Oai, Hà Nội	Thanh Oai	Hà Nội
Nhà biệt thự, liền kề tại đường Cầu Giấy	pr42621359	85 m²	5,5 m	28,6 tỷ	Đông	5 phòng	4 phòng	Đầy đủ	Sổ đỏ/ Sổ hồng	21.0343746557559	105.794342706425	Đường Cầu Giấy, Phường Dịch Vọng, Cầu Giấy, Hà Nội	Cầu Giấy	Hà Nội
Căn hộ chung cư tại Stellar Garden	pr38682281	100 m²		7 tỷ		3 phòng	2 phòng	Đầy đủ	Hợp đồng mua bán	20.9989471435547	105.804176330566	Dự án Stellar Garden, Phố Lê Văn Thiêm, Phường Thanh Xuân Trung, Thanh Xuân, Hà Nội	Thanh Xuân	Hà Nội
Shophouse, nhà phố thương mại tại Vinhomes Cổ Loa	pr41918640	75 m²	5 m	23,1 tỷ	Đông - Bắc	5 phòng	5 phòng		Sổ đỏ/ Sổ hồng	21.116058373147435	105.86972816108273	Dự án Vinhomes Cổ Loa, Đường Cổ Loa, Xã Đông Hội, Đông Anh, Hà Nội.	Đông Anh	Hà Nội
Nhà riêng tại phố Liễu Giai	pr42579460	57 m²	5,7 m	26 tỷ				Cơ bản	Sổ đỏ/ Sổ hồng	21.0335766354807	105.813429380999	Phố Liễu Giai, Phường Liễu Giai, Ba Đình, Hà Nội bị	Ba Đình	Hà Nội
Nhà riêng tại đường Cầu Giấy	pr42344559	96 m²	6,6 m	25 tỷ		24 phòng	24 phòng	Đầy đủ	Sổ đỏ/ Sổ hồng	21.0348094455675	105.794368473583	Đường Cầu Giấy, Phường Dịch Vọng, Cầu Giấy, Hà Nội	Cầu Giấy	Hà Nội
Nhà riêng tại đường Tô Hiệu	pr42363350	53 m²	4,1 m	8 tỷ		1 phòng	1 phòng		Sổ đỏ/ Sổ hồng	20.9665098182716	105.776573497107	Đường Tô Hiệu, Phường Hà Cầu, Hà Đông, Hà Nội	Hà Đông	Hà Nội
Căn hộ chung cư tại N03-T1 Ngoại Giao Đoàn	pr40262777	96,6 m²		8,3 tỷ	Bắc	3 phòng	2 phòng	Đầy đủ	Sổ đỏ/ Sổ hồng	21.0657653808594	105.798080444336	Dự án N03-T1 Ngoại Giao Đoàn, Đường Nguyễn Văn Huyên, Phường Xuân Đỉnh, Bắc Từ Liêm, Hà Nội	Bắc Từ Liêm	Hà Nội
Nhà riêng tại phố Hoàng Ngọc Phách	pr42469440	61 m²	4,8 m	20 tỷ					Sổ đỏ/ Sổ hồng	21.0157856787593	105.812011918671	Phố Hoàng Ngọc Phách, Phường Láng Hạ, Đống Đa, Hà Nội	Đống Đa	Hà Nội
Nhà riêng tại đường Nguyễn Văn Cừ	pr42373973	80 m²	4 m	10,7 tỷ		4 phòng	3 phòng		Sổ đỏ/ Sổ hồng.	21.0438651326572	105.872356856801	Đường Nguyễn Văn Cừ, Phường Bồ Đề, Long Biên, Hà Nội	Long Biên	Hà Nội
Bán đất tại phường La Khê	pr42653885	55 m²	5 m	12,2 tỷ					Sổ đỏ/ Sổ hồng	20.9707771710082	105.76028719195	Phường La Khê, Hà Đông, Hà Nội	Hà Đông	Hà Nội
Nhà riêng tại đường Hàm Nghi	pr42586719	50 m²		8,5 tỷ						21.0351270389942	105.764246081438	Đường Hàm Nghi, Phường Cầu Diễn, Nam Từ Liêm, Hà Nội	Nam Từ Liêm	Hà Nội
Bán đất tại phường Mỗ Lao	pr42656085	38 m²		7 tỷ						20.9850788795702	105.784987254152	Phường Mỗ Lao, Hà Đông, Hà Nội	Hà Đông	Hà Nội
Nhà riêng tại đường Hoàng Như Tiếp	pr40535921	75,8 m²	7 m	11,75 tỷ		5 phòng		Đầy đủ	Sổ đỏ/ Sổ hồng	21.0405457	105.8776409	Đường Hoàng Như Tiếp, Phường Bồ Đề, Long Biên, Hà Nội	Long Biên	Hà Nội
Căn hộ chung cư tại D’. El Dorado	pr42555111	147 m²		24,8 tỷ	Tây	4 phòng	4 phòng	Không nội thất	Sổ đỏ/ Sổ hồng	21.0733471763875	105.799616552547	Dự án D’. El Dorado, đường Nguyễn Hoàng Tôn, Phường Phú Thượng, Tây Hồ, Hà Nội	Tây Hồ	Hà Nội
Nhà riêng tại đường Tô Vĩnh Diện	pr42541781	60 m²	4,5 m	12,8 tỷ		6 phòng	4 phòng		Sổ đỏ/ Sổ hồng	20.9996834868449	105.820895864678	Đường Tô Vĩnh Diện, Phường Khương Trung, Thanh Xuân, Hà Nội	Thanh Xuân	Hà Nội
Nhà mặt phố tại đường Nguyễn Văn Lộc	pr42601790	88 m²	4,4 m	21,5 tỷ		12 phòng	13 phòng	Đầy đủ	Sổ đỏ/ Sổ hồng	20.9852521274238	105.786215681308	Đường Nguyễn Văn Lộc, Phường Mỗ Lao, Hà Đông, Hà Nội	Hà Đông	Hà Nội
Căn hộ chung cư tại Golden Park Tower	pr40942577	95 m²		8,8 tỷ	Đông - Bắc	3 phòng	2 phòng	Đầy đủ	Sổ đỏ/ Sổ hồng	21.0268173217773	105.787666320801	Dự án Golden Park Tower, Đường Phạm Văn Bạch, Phường Yên Hòa, Cầu Giấy, Hà Nội	Cầu Giấy	Hà Nội
Bán đất tại phường Dương Nội	pr42152743	50 m²	4,5 m	9,1 tỷ	Đông - Nam				Sổ đỏ/ Sổ hồng	20.981732635516	105.745940804376	Phường Dương Nội, Hà Đông, Hà Nội	Hà Đông	Hà Nội
Nhà biệt thự, liền kề tại Gamuda Gardens	pr42076489	90 m²	6 m	23,5 tỷ		5 phòng	5 phòng	Đầy đủ nội thất.	Sổ đỏ/ Sổ hồng	20.97011711721	105.872054456112	Gamuda Gardens, Pháp Vân, Yên Sở, Hoàng Mai, Hà Nội	Hoàng Mai	Hà Nội
Bán đất tại đường Hồ Chí Minh	pr42576397	600 m²	25 m	7,8 tỷ	Nam				Sổ đỏ/ Sổ hồng	20.8595831370056	105.635383693606	Đường Hồ Chí Minh, Xã Hoàng Văn Thụ, Chương Mỹ, Hà Nội	Chương Mỹ	Hà Nội
Nhà riêng tại đường Văn Phú	pr42589705	40,5 m²	4 m	13,2 tỷ	Tây - Bắc			Cơ bản	Sổ đỏ/ Sổ hồng	20.9623464706473	105.768556630579	Đường Văn Phú, Phường Quang Trung, Hà Đông, Hà Nội	Hà Đông	Hà Nội
Nhà riêng tại phố Thái Thịnh	pr42582415	51 m²		11,9 tỷ		4 phòng	3 phòng	Đầy đủ	Sổ đỏ/ Sổ hồng	21.010438679133	105.818860209413	Phố Thái Thịnh, Phường Thịnh Quang, Đống Đa, Hà Nội	Đống Đa	Hà Nội
Nhà riêng tại đường Dương Quảng Hàm	pr41311958	161 m²	6 m	20 tỷ		2 phòng	1 phòng		Sổ đỏ/ Sổ hồng	21.0350272181189	105.799759879248	Đường Dương Quảng Hàm, Phường Quan Hoa, Cầu Giấy, Hà Nội	Cầu Giấy	Hà Nội
Căn hộ chung cư tại Park Kiara	pr41141828	91 m²		8,55 tỷ		3 phòng	2 phòng	Cơ bản	Sổ đỏ/ Sổ hồng	20.9673748016357	105.754013061523	Dự án Park Kiara, Đường Lê Trọng Tấn, Phường La Khê, Hà Đông, Hà Nội	Hà Đông	Hà Nội
Bán đất tại xã Di Trạch	pr42598026	71 m²	4 m	130 triệu/m²					Sổ đỏ/ Sổ hồng	21.0460089228688	105.719478903189	Xã Di Trạch, Hoài Đức, Hà Nội	Hoài Đức	Hà Nội
Nhà riêng tại xã Tân Triều	pr42487424	43 m²		10,9 tỷ					Sổ đỏ	20.9726415591435	105.799457043526	Xã Tân Triều, Thanh Trì, Hà Nội	Thanh Trì	Hà Nội
Căn hộ chung cư tại Vinhomes West Point	pr26567622	224 m²		19,5 tỷ		4 phòng		Đầy đủ	Sổ đỏ chính chủ	21.0118827819824	105.786445617676	Dự án Vinhomes West Point, Đường Phạm Hùng, Phường Mễ Trì, Nam Từ Liêm, Hà Nội	Nam Từ Liêm	Hà Nội
Bán đất tại đường Giải Phóng	pr42469856	94 m²	5,3 m	15 tỷ					Sổ đỏ/ Sổ hồng	20.9836084755809	105.841274076159	Đường Giải Phóng, Phường Giáp Bát, Hoàng Mai, Hà Nội	Hoàng Mai	Hà Nội
Nhà biệt thự, liền kề tại Kiến Hưng Luxury	pr42616338	68 m²		19,8 tỷ		4 phòng	5 phòng	Đầy đủ	Sổ đỏ/ Sổ hồng	20.952383360418686	105.78562665334339	Dự án Kiến Hưng Luxury, Phường Kiến Hưng, Hà Đông, Hà Nội	Hà Đông	Hà Nội
Nhà mặt phố tại đường Giang Văn Minh	pr42593504	24 m²	4,2 m	17,5 tỷ		4 phòng	4 phòng	Đầy đủ	Sổ đỏ/ Sổ hồng	21.0320132252062	105.826967238681	Đường Giang Văn Minh, Phường Kim Mã, Ba Đình, Hà Nội	Ba Đình	Hà Nội
Nhà riêng tại đường Kim Giang	pr42455045	40 m²	4 m	8,75 tỷ				Đầy đủ.	Sổ đỏ/ Sổ hồng	20.9790835595346	105.821016296793	Đường Kim Giang, Phường Đại Kim, Hoàng Mai, Hà Nội	Hoàng Mai	Hà Nội
Shophouse, nhà phố thương mại tại Roman Plaza	pr42141225	744 m²	7 m	40 triệu/m²	Tây - Bắc	11 phòng	6 phòng	Không nội thất	Sổ đỏ/ Sổ hồng	20.98414474058931	105.77716220353936	Dự án Roman Plaza, Đường Tố Hữu, Phường Đại Mỗ, Nam Từ Liêm, Hà Nội	Nam Từ Liêm	Hà Nội
Nhà riêng tại đường Trường Chinh	pr41827127	69 m²		13,8 tỷ		4 phòng	4 phòng		Sổ đỏ/ Sổ hồng	20.9986509871809	105.837977710587	102, Đường Trường Chinh, Phường Phương Mai, Đống Đa, Hà Nội	Đống Đa	Hà Nội
Nhà riêng tại phố Kim Mã	pr42359924	43 m²		8,8 tỷ	Bắc	5 phòng	4 phòng	Đầy đủ	Sổ đỏ/ Sổ hồng	21.0317829429711	105.825408673663	Ngõ 82, Phố Kim Mã, Phường Kim Mã, Ba Đình, Hà Nội	Ba Đình	Hà Nội
Shophouse, nhà phố thương mại tại Vinhomes Ocean Park Gia Lâm	pr42306896	70 m²	5 m	18,8 tỷ	Tây - Bắc			Đầy đủ	Sổ đỏ/ Sổ hồng	21.003198038182344	105.96417353099487	Dự án Vinhomes Ocean Park Gia Lâm, Xã Dương Xá, Gia Lâm, Hà Nội	Gia Lâm	Hà Nội
Nhà riêng tại đường Hoàng Mai	pr42524634	32 m²	3,2 m	8,2 tỷ	Nam	5 phòng	5 phòng	Đầy đủ.	Sổ đỏ/ Sổ hồng	20.9848644696041	105.843536117657	Đường Hoàng Mai, Phường Định Công, Hoàng Mai, Hà Nội	Hoàng Mai	Hà Nội
Căn hộ chung cư tại Việt Đức Complex	pr42625014	136,6 m²		7,65 tỷ	Tây - Nam	3 phòng	2 phòng	Không nội thất	Hợp đồng mua bán	20.999669389354345	105.79956585165387	Dự án Việt Đức Complex, Đường Khuất Duy Tiến, Phường Nhân Chính, Thanh Xuân, Hà Nội	Thanh Xuân	Hà Nội
Nhà riêng tại đường Lê Quang Đạo	pr42524831	48,6 m²	3,8 m	8,2 tỷ		4 phòng	3 phòng		Sổ đỏ/ Sổ hồng	21.0122250493206	105.771034763789	Ngõ 8, Đường Lê Quang Đạo, Phường Phú Đô, Nam Từ Liêm, Hà Nội	Nam Từ Liêm	Hà Nội
Nhà biệt thự, liền kề tại Khu đô thị mới Văn Phú	pr40876825	82 m²		20,2 tỷ		5 phòng	5 phòng	Đầy đủ	Sổ đỏ/ Sổ hồng	20.957682561577649	105.76716471809475	Dự án KĐT Văn Phú, Phường Phú La, Hà Đông, Hà Nội	Hà Đông	Hà Nội
Nhà mặt phố tại phường Đội Cấn	pr42589119	44 m²	4,5 m	16,2 tỷ		1 phòng	1 phòng	Cơ bản	Sổ đỏ/ Sổ hồng	21.0347849076387	105.826217100137	Phường Đội Cấn, Ba Đình, Hà Nội	Ba Đình	Hà Nội
Nhà mặt phố tại đường Minh Khai	pr42560263	65 m²	4,5 m	14 tỷ		3 phòng	3 phòng		Sổ đỏ/ Sổ hồng	20.9976111874569	105.866807523062	Đường Minh Khai, Phường Vĩnh Tuy, Hai Bà Trưng, Hà Nội	Hai Bà Trưng	Hà Nội
Bán đất tại đường Quyết Thắng	pr39756205	75 m²	5 m	9,3 tỷ					Sổ đỏ/ Sổ hồng	20.9534174	105.7396977	Đường Quyết Thắng, Phường Yên Nghĩa, Hà Đông, Hà Nội	Hà Đông	Hà Nội
Nhà riêng tại đường Mỹ Đình	pr42621127	51 m²	5,8 m	8,8 tỷ		5 phòng		Đầy đủ	Sổ đỏ/ Sổ hồng	21.0273476420327	105.77426487004	đường Mỹ Đình, Phường Mỹ Đình 2, Nam Từ Liêm, Hà Nội	Nam Từ Liêm	Hà Nội
Nhà biệt thự, liền kề tại Eurowindow Twin Parks	pr42632339	75 m²		17 tỷ					Đang chờ sổ	21.007029273978258	105.93763983477892	Eurowindow Twin Parks, Thị trấn Trâu Quỳ, Gia Lâm, Hà Nội	Gia Lâm	Hà Nội
Nhà riêng tại phố Hào Nam	pr42576484	38 m²	4 m	8,25 tỷ		5 phòng	5 phòng	Đầy đủ	Sổ đỏ/ Sổ hồng	21.0273479500894	105.827779829454	Phố Hào Nam, Phường Cát Linh, Đống Đa, Hà Nội	Đống Đa	Hà Nội
Căn hộ chung cư tại Bamboo Airways Tower	pr42639616	96 m²		7,1 tỷ		2 phòng	2 phòng	Đầy đủ	Sổ đỏ/ Sổ hồng	21.03459304989164	105.79519302329555	Bamboo Airways Tower, Đường Cầu Giấy, Phường Dịch Vọng, Cầu Giấy, Hà Nội	Cầu Giấy	Hà Nội
Nhà riêng tại phố Phạm Tuấn Tài	pr42626604	60 m²		26,5 tỷ					Sổ đỏ/ Sổ hồng	21.0434316131605	105.785912142315	Phố Phạm Tuấn Tài, Phường Nghĩa Đô, Cầu Giấy, Hà Nội	Cầu Giấy	Hà Nội
Nhà biệt thự, liền kề tại Khu đô thị mới Đại Kim - Định Công	pr42445844	54 m²	4,3 m	17,8 tỷ				Không nội thất	Sổ đỏ/ Sổ hồng	20.978088066319994	105.83601688618147	KĐTM Đại Kim - Định Công, Phường Đại Kim, Hoàng Mai, Hà Nội	Hoàng Mai	Hà Nội
Bán đất tại đường Lê Đức Thọ	pr42593964	65 m²	5,2 m	16,5 tỷ					Sổ đỏ/ Sổ hồng	21.0310457567199	105.769302072503	Đường Lê Đức Thọ, Phường Mỹ Đình 2, Nam Từ Liêm, Hà Nội	Nam Từ Liêm	Hà Nội
Bán đất tại đường Nhật Chiêu	pr42578405	120 m²	5 m	19,8 tỷ					Sổ đỏ/ Sổ hồng	21.0723801168409	105.817085693128	Đường Nhật Chiêu, Phường Nhật Tân, Tây Hồ, Hà Nội	Tây Hồ	Hà Nội
Nhà riêng tại đường Hoàng Quốc Việt	pr42487476	60 m²	4 m	27,8 tỷ		4 phòng	4 phòng	Đầy đủ	Sổ đỏ/ Sổ hồng	21.0460000193111	105.79934258108	Đường Hoàng Quốc Việt, Phường Nghĩa Đô, Cầu Giấy, Hà Nội	Cầu Giấy	Hà Nội
Bán đất tại phường Vạn Phúc	pr42599009	43,7 m²	4,37 m	13,5 tỷ					Sổ đỏ	20.9802177959931	105.772180819399	Phường Vạn Phúc, Hà Đông, Hà Nội	Hà Đông	Hà Nội
Căn hộ chung cư tại Sunshine City	pr40151117	99 m²		7 tỷ		3 phòng	2 phòng			21.08497391533869	105.79145086787376	Dự án Sunshine City, Phường Đông Ngạc, Bắc Từ Liêm, Hà Nội	Bắc Từ Liêm	Hà Nội
Nhà mặt phố tại phố Trần Quốc Hoàn	pr42657819	30 m²	5,6 m	12 tỷ		3 phòng	4 phòng	Đầy đủ	Sổ đỏ/ Sổ hồng	21.0412926217836	105.786601033847	Phố Trần Quốc Hoàn, Phường Dịch Vọng, Cầu Giấy, Hà Nội	Cầu Giấy	Hà Nội
Nhà riêng tại đường Lạc Long Quân	pr42621227	41 m²	3,8 m	11,3 tỷ	Tây	4 phòng	4 phòng		Sổ đỏ/ Sổ hồng	21.0769361118275	105.81433915724	Đường Lạc Long Quân, Phường Phú Thượng, Tây Hồ, Hà Nội	Tây Hồ	Hà Nội
Bán đất tại phường Đại Mỗ	pr41953224	50 m²	6 m	8,5 tỷ					+ Pháp lý đầy đủ sổ đỏ sẵn sàn giao dịch.	20.9940543339755	105.760882938682	Phường Đại Mỗ, Nam Từ Liêm, Hà Nội	Nam Từ Liêm	Hà Nội
Nhà riêng tại phường Văn Quán	pr42022953	35 m²	3,55 m	7 tỷ		3 phòng	4 phòng	Đầy đủ	Sổ đỏ/ Sổ hồng	20.9761396701502	105.791358347675	Phường Văn Quán, Hà Đông, Hà Nội	Hà Đông	Hà Nội
Nhà mặt phố tại đường Tôn Thất Tùng	pr42331970	55 m²	7 m	24,5 tỷ	Đông - Nam				Sổ đỏ/ Sổ hồng	21.002180790518	105.829302838093	Đường Tôn Thất Tùng, Phường Khương Thượng, Đống Đa, Hà Nội	Đống Đa	Hà Nội
Nhà riêng tại phường Phúc Xá	pr42655273	51 m²	4,8 m	11,5 tỷ		2 phòng	3 phòng	Đầy đủ	Sổ đỏ/ Sổ hồng	21.0454093061332	105.848058159316	Phường Phúc Xá, Ba Đình, Hà Nội	Ba Đình	Hà Nội
Nhà riêng tại phố Tôn Đức Thắng	pr42583981	53 m²		14,5 tỷ				Đầy đủ	Sổ đỏ/ Sổ hồng	21.0268867741125	105.83383653185	Thịnh Hào 1, Phố Tôn Đức Thắng, Phường Hàng Bột, Đống Đa, Hà Nội	Đống Đa	Hà Nội
Nhà mặt phố tại đường Ngọc Thụy	pr42587297	82 m²	4 m	23,4 tỷ	Bắc	1 phòng	1 phòng	Không nội thất	Sổ đỏ/ Sổ hồng	21.0495431606121	105.866665606661	Đường Ngọc Thụy, Phường Ngọc Thụy, Long Biên, Hà Nội	Long Biên	Hà Nội
Nhà biệt thự, liền kề tại Hinode Royal Park	pr42301596	100 m²	5 m	14,2 tỷ		8 phòng	9 phòng	Cơ bản	Sổ đỏ/ Sổ hồng	21.0558640864949	105.716229157463	Hinode Royal Park, Quốc lộ 32, Di Trạch, Hoài Đức, Hà Nội	Hoài Đức	Hà Nội
Căn hộ chung cư tại Vinhomes Times City - Park Hill	pr42623921	100 m²		9,3 tỷ	Tây	3 phòng	2 phòng	Đầy đủ	Sổ đỏ/ Sổ hồng	20.99485782280275	105.86680825472727	Times City - Park Hill, Đường Minh Khai, Phường Vĩnh Tuy, Hai Bà Trưng, Hà Nội	Hai Bà Trưng	Hà Nội
Nhà riêng tại đường Ngọc Thụy	pr42058633	40 m²		8,5 tỷ						21.0495669497145	105.867064755623	Ngõ 344, Đường Ngọc Thụy, Phường Ngọc Thụy, Long Biên, Hà Nội	Long Biên	Hà Nội
Căn hộ chung cư tại The Nelson Private Residences	pr42601305	83 m²		11 tỷ	Đông - Bắc	2 phòng	2 phòng		Sổ đỏ/ Sổ hồng	21.02081556011511	105.81889806893278	Dự án The Nelson Private Residences, 29, Phố Láng Hạ, Phường Thành Công, Ba Đình, Hà Nội	Ba Đình	Hà Nội
Nhà riêng tại đường Kim Ngưu	pr42605506	36,2 m²	3,8 m	7,5 tỷ		4 phòng	3 phòng	Cơ bản	Sổ đỏ/ Sổ hồng	21.0049140452087	105.861331633824	Đường Kim Ngưu, Phường Thanh Lương, Hai Bà Trưng, Hà Nội	Hai Bà Trưng	Hà Nội
Nhà biệt thự, liền kề tại Xuân Phương Tasco	pr41058933	90 m²	6 m	24 tỷ						21.025352478027344	105.74130249023438	Dự án Xuân Phương Tasco, Phường Xuân Phương, Nam Từ Liêm, Hà Nội.	Nam Từ Liêm	Hà Nội
Nhà riêng tại đường Bồ Đề	pr42420065	50 m²	4,5 m	10 tỷ		3 phòng	4 phòng	Đầy đủ.	Sổ đỏ/ Sổ hồng	21.0382733909268	105.871899110914	Đường Bồ Đề, Phường Bồ Đề, Long Biên, Hà Nội	Long Biên	Hà Nội
Nhà riêng tại đường Xuân Đỉnh	pr41497782	70 m²	5 m	13,5 tỷ		4 phòng	4 phòng	Đầy đủ.	Sổ đỏ/ Sổ hồng	21.0710980414536	105.794350081688	Đường Xuân Đỉnh, Phường Xuân Đỉnh, Bắc Từ Liêm, Hà Nội	Bắc Từ Liêm	Hà Nội
Nhà riêng tại phố Thái Hà	pr42578634	48 m²		15,9 tỷ		4 phòng	4 phòng	Đầy đủ	Sổ đỏ/ Sổ hồng	21.0128429263205	105.819921428941	Phố Thái Hà, Phường Trung Liệt, Đống Đa, Hà Nội	Đống Đa	Hà Nội
Bán đất tại đường Hồ Đắc Di	pr42626747	80 m²		19,4 tỷ					Sổ đỏ/ Sổ hồng	21.0121105411728	105.828964082055	Đường Hồ Đắc Di, Phường Quang Trung, Đống Đa, Hà Nội	Đống Đa	Hà Nội
Nhà riêng tại Khu đô thị mới Nghĩa Đô	pr42622878	40 m²	4 m	13 tỷ		4 phòng	4 phòng	Cơ bản	Sổ đỏ/ Sổ hồng	21.050649908029936	105.791729424851	Dự án Khu đô thị mới Nghĩa Đô, Đường Hoàng Quốc Việt, Phường Cổ Nhuế 1, Bắc Từ Liêm, Hà Nội	Bắc Từ Liêm	Hà Nội
Nhà riêng tại đường Trần Quang Diệu	pr42644232	55 m²	5 m	14 tỷ		4 phòng	3 phòng		Sổ đỏ/ Sổ hồng	21.0154960023045	105.824450308533	Đường Trần Quang Diệu, Phường Ô Chợ Dừa, Đống Đa, Hà Nội	Đống Đa	Hà Nội
Bán đất tại đường Xuân Khôi	pr42579744	247 m²	18 m	31 triệu/m²					Sổ đỏ/ Sổ hồng.	21.0035938059875	105.903269687394	Đường Xuân Khôi, Phường Cự Khối, Long Biên, Hà Nội.	Long Biên	Hà Nội
Nhà mặt phố tại phố Trần Cung	pr41971307	135 m²	5,6 m	24 tỷ		1 phòng	1 phòng	Không nội thất	Sổ đỏ/ Sổ hồng	21.0525024088435	105.789290877224	Phố Trần Cung, Phường Yên Hòa, Cầu Giấy, Hà Nội	Cầu Giấy	Hà Nội
Nhà riêng tại đường Minh Khai	pr42572577	59 m²	4 m	8,7 tỷ		7 phòng	4 phòng	Đầy đủ	Sổ đỏ/ Sổ hồng.	20.9950923829715	105.856751566625	254, Đường Minh Khai, Phường Minh Khai, Hai Bà Trưng, Hà Nội	Hai Bà Trưng	Hà Nội
Nhà riêng tại phường Ngọc Thụy	pr42652442	50 m²		9,8 tỷ					Sổ đỏ/ Sổ hồng	21.0586547522581	105.868254261026	Phường Ngọc Thụy, Long Biên, Hà Nội	Long Biên	Hà Nội
Nhà riêng tại đường Đình Thôn	pr42618121	62,9 m²		13 tỷ		10 phòng	10 phòng		Sổ đỏ/ Sổ hồng	21.0205764273309	105.774729558384	Đường Đình Thôn, Phường Mỹ Đình 1, Nam Từ Liêm, Hà Nội	Nam Từ Liêm	Hà Nội
Nhà biệt thự, liền kề tại Khai Sơn City	pr28296569	100 m²	6,2 m	21 tỷ	Bắc	6 phòng	6 phòng	Cơ bản.	Sổ đỏ/ Sổ hồng	21.0525003896904	105.884362161138	Dự án Khai Sơn City, Đường Lý Sơn, Phường Gia Thụy, Long Biên, Hà Nội	Long Biên	Hà Nội
Căn hộ chung cư tại Chung cư Westlake Residential	pr42432194	81,5 m²		14 tỷ		2 phòng			Sổ đỏ/ Sổ hồng	21.084693705030183	105.80871329925415	Dự án Chung cư Westlake Residential , Phường Phú Thượng, Tây Hồ, Hà Nội	Tây Hồ	Hà Nội
Căn hộ chung cư tại The Zei Mỹ Đình	pr41948310	93 m²		7,5 tỷ		2 phòng	2 phòng	Cơ bản	Sổ đỏ/ Sổ hồng	21.034862303420145	105.76997320369041	Dự án The Zei Mỹ Đình, Đường Lê Đức Thọ, Phường Mỹ Đình 2, Nam Từ Liêm, Hà Nội	Nam Từ Liêm	Hà Nội
Nhà biệt thự, liền kề tại Hồng Hà Tower	pr42652812	65 m²	5 m	15,85 tỷ		6 phòng	4 phòng	Đầy đủ	Sổ đỏ/ Sổ hồng	20.975198002996763	105.8559497888322	Hồng Hà Tower, Thịnh Liệt, Thịnh Liệt, Hoàng Mai, Hà Nội	Hoàng Mai	Hà Nội
Nhà mặt phố tại đường Dương Khuê	pr42272732	77 m²	4 m	23 tỷ		3 phòng	3 phòng	Cơ bản	Sổ đỏ/ Sổ hồng	21.0355110548833	105.773127672851	Đường Dương Khuê, Phường Mai Dịch, Cầu Giấy, Hà Nội	Cầu Giấy	Hà Nội
Nhà biệt thự, liền kề tại đường Dịch Vọng	pr42493577	105 m²		29 tỷ				Cao Cấp	Sổ đỏ/ Sổ hồng	21.0288745094494	105.783055790242	Đường Dịch Vọng, Phường Dịch Vọng, Cầu Giấy, Hà Nội	Cầu Giấy	Hà Nội
Nhà biệt thự, liền kề tại Làng Việt Kiều Châu Âu Euroland	pr42606176	86 m²		27,5 tỷ						20.9837758010901	105.786513746086	Dự án Làng Việt Kiều Châu Âu Euroland, Đường Nguyễn Văn Lộc, Phường Mỗ Lao, Hà Đông, Hà Nội	Hà Đông	Hà Nội
Nhà riêng tại Khu đô thị Mỗ Lao	pr42640886	37 m²	6,5 m	9,5 tỷ	Nam	3 phòng	4 phòng	Cơ bản	Sổ đỏ/ Sổ hồng	20.98319575963497	105.78160585622797	Mỗ Lao, Đường Mỗ Lao, Phường Mỗ Lao, Hà Đông, Hà Nội	Hà Đông	Hà Nội
Nhà biệt thự, liền kề tại Khu đô thị Đại Kim	pr40460887	83 m²	5 m	285 triệu/m²	Tây - Nam	8 phòng	10 phòng	Không nội thất.	Sổ đỏ/ Sổ hồng	20.972227501146435	105.82004051392273	Dự án KĐT Đại Kim, Đường Nghiêm Xuân Yêm, Phường Đại Kim, Hoàng Mai, Hà Nội	Hoàng Mai	Hà Nội
Nhà biệt thự, liền kề tại Khu đô thị Quang Minh	pr38900882	242 m²		75 triệu/m²				Cơ bản		21.1972047887093	105.781898588536	Dự án KĐT Quang Minh, Đường Cao tốc Thăng Long Nội Bài, Thị trấn Quang Minh, Mê Linh, Hà Nội	Mê Linh	Hà Nội
Nhà riêng tại đường Đào Tấn	pr42627521	35 m²		8,6 tỷ	Tây - Nam	3 phòng	4 phòng		Sổ đỏ/ Sổ hồng	21.0323047597879	105.809146566413	Đường Đào Tấn, Phường Ngọc Khánh, Ba Đình, Hà Nội	Ba Đình	Hà Nội
Nhà riêng tại đường Nguyễn Chí Thanh	pr42637871	40 m²	5 m	15,8 tỷ		4 phòng	5 phòng	Đầy đủ	Sổ đỏ/ Sổ hồng	21.0206963542968	105.808531057825	Đường Nguyễn Chí Thanh, Phường Láng Hạ, Đống Đa, Hà Nội	Đống Đa	Hà Nội
Nhà biệt thự, liền kề tại Khu đô thị mới Văn Quán	pr33369555	115 m²		27,5 tỷ						20.9745990575747	105.788560436773	Dự án KĐT Văn Quán, Đường Chiến Thắng, Phường Phúc La, Hà Đông, Hà Nội	Hà Đông	Hà Nội
Nhà riêng tại đường Trần Duy Hưng	pr42573613	41 m²		8,3 tỷ		3 phòng	4 phòng	Đầy đủ	Sổ đỏ/ Sổ hồng	21.0107112067191	105.7995970554	Đường Trần Duy Hưng, Phường Trung Hòa, Cầu Giấy, Hà Nội	Cầu Giấy	Hà Nội
Căn hộ chung cư tại Golden Land	pr42609138	130 m²		63 triệu/m²		3 phòng	2 phòng	Cơ bản		20.99289275333338	105.80728526897104	Golden Land, Nguyễn Trãi, Thanh Xuân Trung, Thanh Xuân, Hà Nội	Thanh Xuân	Hà Nội
Nhà riêng tại đường Xuân La	pr41498709	42 m²		8 tỷ		3 phòng	4 phòng		Sổ đỏ/ Sổ hồng	21.0646607257931	105.805663766503	Ngõ 77, Đường Xuân La, Phường Xuân La, Tây Hồ, Hà Nội	Tây Hồ	Hà Nội
Nhà mặt phố tại đường Bờ Sông Sét	pr40803527	36 m²	5,8 m	14,5 tỷ		12 phòng	10 phòng	Đầy đủ.	Sổ đỏ/ Sổ hồng	20.9832861550369	105.845465746342	Đường Bờ Sông Sét, Phường Tương Mai, Hoàng Mai, Hà Nội	Hoàng Mai	Hà Nội
Nhà riêng tại đường Quang Trung	pr42616289	51,4 m²	7,8 m	23,5 tỷ		6 phòng	4 phòng	Không nội thất	Sổ đỏ/ Sổ hồng	20.9721364495086	105.761902659575	Đường Quang Trung, Phường La Khê, Hà Đông, Hà Nội	Hà Đông	Hà Nội
Bán đất tại xã Tân Hội	pr42422678	100,5 m²		150 triệu/m²	Đông - Nam				Sổ đỏ/ Sổ hồng	21.0946501010563	105.702935232334	Xã Tân Hội, Đan Phượng, Hà Nội	Đan Phượng	Hà Nội
Nhà riêng tại phố Kim Mã	pr42639594	56 m²		11,9 tỷ		4 phòng	4 phòng	Đầy đủ	Sổ đỏ/ Sổ hồng	21.0318021296423	105.825075476489	Phố Kim Mã, Phường Kim Mã, Ba Đình, Hà Nội	Ba Đình	Hà Nội
Nhà riêng tại đường Định Công Hạ	pr42597872	41 m²	4 m	7,6 tỷ		6 phòng		Đầy đủ	Sổ đỏ/ Sổ hồng	20.9826557268271	105.827563444977	Đường Định Công Hạ, Phường Định Công, Hoàng Mai, Hà Nội	Hoàng Mai	Hà Nội
Nhà riêng tại đường Phố Trạm	pr42506233	50 m²		12,9 tỷ		4 phòng	4 phòng	Đầy đủ.	Sổ đỏ/ Sổ hồng	21.0261811999281	105.893188302914	Đường Phố Trạm, Phường Long Biên, Long Biên, Hà Nội	Long Biên	Hà Nội
Nhà riêng tại đường Kim Giang	pr42480047	46 m²		10,5 tỷ					Sổ đỏ/ Sổ hồng	20.9830041039501	105.815463996115	Đường Kim Giang, Phường Khương Đình, Thanh Xuân, Hà Nội	Thanh Xuân	Hà Nội
Nhà riêng tại đường Hoàng Quốc Việt	pr42456529	60 m²	5,1 m	21 tỷ		9 phòng		Đầy đủ	Sổ đỏ/ Sổ hồng	21.0462206928837	105.787939779091	Đường Hoàng Quốc Việt, Phường Cổ Nhuế 1, Bắc Từ Liêm, Hà Nội	Bắc Từ Liêm	Hà Nội
Nhà riêng tại phố Quan Nhân	pr42598368	26 m²	4 m	7,99 tỷ		3 phòng	4 phòng	Đầy đủ	Sổ đỏ/ Sổ hồng	21.0034894358862	105.810601454415	Phố Quan Nhân, Phường Nhân Chính, Thanh Xuân, Hà Nội	Thanh Xuân	Hà Nội
Nhà riêng tại phố Phùng Chí Kiên	pr42586063	45 m²	4 m	15,8 tỷ				Đầy đủ	Sổ đỏ/ Sổ hồng	21.0432288526115	105.802635572122	Phố Phùng Chí Kiên, Phường Nghĩa Đô, Cầu Giấy, Hà Nội	Cầu Giấy	Hà Nội
Nhà riêng tại đường Cổ Linh	pr42635653	50 m²	5 m	13,5 tỷ	Tây	4 phòng	4 phòng		Sổ đỏ/ Sổ hồng	21.0242490478138	105.902451216147	Đường Cổ Linh, Phường Thạch Bàn, Long Biên, Hà Nội	Long Biên	Hà Nội
Nhà riêng tại đường Lạc Long Quân	pr42466149	35 m²	4 m	9,2 tỷ		3 phòng	4 phòng	Cơ bản	Sổ đỏ/ Sổ hồng	21.061260117618	105.809013089233	Đường Lạc Long Quân, Phường Xuân La, Tây Hồ, Hà Nội	Tây Hồ	Hà Nội
Nhà biệt thự, liền kề tại Khu đô thị Yên Hòa	pr41402844	74 m²	4,7 m	30 tỷ		6 phòng	4 phòng	Đầy đủ	Sổ đỏ/ Sổ hồng	21.018846675362781	105.79414459241023	Dự án Yên Hòa, Phố Trung Kính, Phường Yên Hòa, Cầu Giấy, Hà Nội	Cầu Giấy	Hà Nội
Nhà mặt phố tại đường Tô Hiệu	pr42620060	55 m²	4,2 m	21 tỷ		5 phòng	3 phòng		Sổ đỏ/ Sổ hồng	20.9662414434248	105.777031668872	Đường Tô Hiệu, Phường Hà Cầu, Hà Đông, Hà Nội	Hà Đông	Hà Nội
Nhà riêng tại phường Đại Mỗ	pr42615242	43 m²	8 m	9,6 tỷ		4 phòng	4 phòng	Đầy đủ	Sổ đỏ/ Sổ hồng	20.9941113187154	105.761145456281	Phường Đại Mỗ, Nam Từ Liêm, Hà Nội	Nam Từ Liêm	Hà Nội
Nhà riêng tại đường Nguyễn Văn Cừ	pr42639899	118 m²	5,5 m	27 tỷ		5 phòng	6 phòng	Nội thất nhập khẩu	Sổ đỏ/ Sổ hồng	21.0438280321194	105.872389356502	Đường Nguyễn Văn Cừ, Phường Bồ Đề, Long Biên, Hà Nội	Long Biên	Hà Nội
Nhà riêng tại đường Vĩnh Phúc	pr42591152	35 m²		7,95 tỷ				Cơ bản	Sổ đỏ/ Sổ hồng	21.0439891160109	105.810035366371	Phố Vĩnh Phúc, Phường Vĩnh Phúc, Ba Đình, Hà Nội	Ba Đình	Hà Nội
Nhà riêng tại đường Đào Tấn	pr42590703	50 m²	4 m	9,5 tỷ						21.0325269590733	105.808481507135	Ngõ 58,92, Đường Đào Tấn, Phường Cống Vị, Ba Đình, Hà Nội	Ba Đình	Hà Nội
Nhà riêng tại đường Trần Quang Diệu	pr42369693	61 m²		20,5 tỷ		6 phòng	6 phòng	Đầy đủ	Sổ đỏ/ Sổ hồng	21.0155569066966	105.824131736743	Đường Trần Quang Diệu, Phường Ô Chợ Dừa, Đống Đa, Hà Nội	Đống Đa	Hà Nội
Nhà mặt phố tại đường Dương Văn Bé	pr42621893	70 m²		28,5 tỷ		7 phòng	7 phòng	Đầy đủ	Sổ đỏ/ Sổ hồng	20.9951358255801	105.874161272201	Đường Dương Văn Bé, Phường Minh Khai, Hai Bà Trưng, Hà Nội	Hai Bà Trưng	Hà Nội
Căn hộ chung cư tại Eurowindow Multi Complex	pr41553488	120 m²		8,5 tỷ	Đông - Nam	3 phòng	2 phòng	Đầy đủ	Sổ đỏ/ Sổ hồng	21.011089324951172	105.7999038696289	Dự án Eurowindow Multi Complex, Đường Trần Duy Hưng, Phường Trung Hòa, Cầu Giấy, Hà Nội	Cầu Giấy	Hà Nội
Nhà biệt thự, liền kề tại Sol Lake Villa	pr40773050	75 m²	5 m	13 tỷ					Sổ đỏ/ Sổ hồng	20.959425967242382	105.73613066748239	Dự án Sol Lake Villa, Đường Tố Hữu, Phường Yên Nghĩa, Hà Đông, Hà Nội	Hà Đông	Hà Nội
Nhà biệt thự, liền kề tại Khu đô thị Đại Kim	pr42284532	71 m²		215 triệu/m²				Xây thô hoàn thiện mặt ngoài.	Đã có sổ đỏ từng lô.	20.9726145559179	105.820222780309	Dự án KĐT Đại Kim, Đường Nguyễn Cảnh Dị, Phường Đại Kim, Hoàng Mai, Hà Nội	Hoàng Mai	Hà Nội
Căn hộ chung cư tại Chung cư M5 Nguyễn Chí Thanh	pr42138541	149 m²		9,3 tỷ		3 phòng	2 phòng	Đầy đủ	Sổ đỏ/ Sổ hồng	21.0209899860415	105.80981166563215	Dự án M5 Nguyễn Chí Thanh, Đường Nguyễn Chí Thanh, Phường Láng Hạ, Đống Đa, Hà Nội	Đống Đa	Hà Nội
Nhà riêng tại phố Liễu Giai	pr42622051	65 m²		17,8 tỷ					Sổ đỏ/ Sổ hồng	21.0343093400607	105.813408147047	Ngõ 19, Phố Liễu Giai, Phường Liễu Giai, Ba Đình, Hà Nội	Ba Đình	Hà Nội
Nhà mặt phố tại đường Trường Lâm	pr42607883	70 m²	4,5 m	20 tỷ			1 phòng			21.0621198749676	105.898378037182	Đường Trường Lâm, Phường Đức Giang, Long Biên, Hà Nội	Long Biên	Hà Nội
Nhà riêng tại đường Lê Đức Thọ	pr42402602	70 m²	5 m	12,5 tỷ	Tây - Nam	4 phòng	3 phòng	Đầy đủ	Sổ đỏ/ Sổ hồng	21.0305635386789	105.769309593256	Đường Lê Đức Thọ, Phường Mỹ Đình 2, Nam Từ Liêm, Hà Nội	Nam Từ Liêm	Hà Nội
Nhà riêng tại đường Ô Chợ Dừa	pr42465601	35 m²	4 m	12,1 tỷ	Tây	3 phòng	4 phòng	Đầy đủ	Sổ đỏ/ Sổ hồng	21.0198418537465	105.827596951881	Đường Ô Chợ Dừa, Phường Ô Chợ Dừa, Đống Đa, Hà Nội	Đống Đa	Hà Nội
Nhà riêng tại đường Hoàng Quốc Việt	pr41947330	75 m²	6 m	21 tỷ				Đầy đủ		21.046247631666	105.799435317127	Đường Hoàng Quốc Việt, Phường Nghĩa Đô, Cầu Giấy, Hà Nội	Cầu Giấy	Hà Nội
Căn hộ chung cư tại Mỹ Đình Pearl	pr42498815	94 m²		7,3 tỷ	Đông - Bắc	3 phòng	2 phòng	Đầy đủ	Sổ đỏ/ Sổ hồng	21.012605448192232	105.76783502901799	Dự án Mỹ Đình Pearl, Phường Phú Đô, Nam Từ Liêm, Hà Nội	Nam Từ Liêm	Hà Nội
Nhà riêng tại đường Lê Trọng Tấn	pr42620287	88 m²	4,6 m	28 tỷ		4 phòng	5 phòng	Đầy đủ	Sổ đỏ/ Sổ hồng	21.0004302701751	105.827825669014	Đường Lê Trọng Tấn, Phường Khương Mai, Thanh Xuân, Hà Nội	Thanh Xuân	Hà Nội
Nhà riêng tại đường Trần Khát Chân	pr42590516	45 m²		8,6 tỷ				Cơ bản	Sổ đỏ/ Sổ hồng	21.0087411376236	105.856707852263	Đường Trần Khát Chân, Phường Thanh Nhàn, Hai Bà Trưng, Hà Nội	Hai Bà Trưng	Hà Nội
Nhà riêng tại đường Đội Cấn	pr42652211	42 m²	4,5 m	9 tỷ		4 phòng	3 phòng	Đầy đủ	Sổ đỏ/ Sổ hồng	21.0349422788287	105.823487633304	Đường Đội Cấn, Phường Ngọc Hà, Ba Đình, Hà Nội	Ba Đình	Hà Nội
Nhà mặt phố tại thị trấn Đông Anh	pr42582811	60 m²	4 m	13,5 tỷ		3 phòng	3 phòng					Thị trấn Đông Anh, Đông Anh, Hà Nội	Đông Anh	Hà Nội
Nhà mặt phố tại đường Nguyễn Văn Cừ	pr42386115	42 m²		12,9 tỷ		4 phòng	6 phòng	Đầy đủ.	Sổ đỏ/ Sổ hồng	21.0435597643429	105.872611251764	Đường Nguyễn Văn Cừ, Phường Ngọc Lâm, Long Biên, Hà Nội	Long Biên	Hà Nội
Bán đất tại đường Phúc Đồng	pr42597763	88 m²	6 m	17,7 tỷ	Đông - Nam				Sổ đỏ/ Sổ hồng	21.0406937883913	105.896310841406	Đường Phúc Đồng, Phường Phúc Đồng, Long Biên, Hà Nội	Long Biên	Hà Nội
Nhà riêng tại đường Khương Đình	pr42641928	50 m²	4 m	10,2 tỷ		10 phòng	10 phòng		Sổ đỏ/ Sổ hồng	20.9920797820696	105.813511584588	Đường Khương Đình, Phường Hạ Đình, Thanh Xuân, Hà Nội	Thanh Xuân	Hà Nội
Nhà riêng tại đường Hoa Lâm	pr41527644	110 m²	11 m	20 tỷ		3 phòng	10 phòng			21.056883396233	105.895747103445	Đường Hoa Lâm, Phường Việt Hưng, Long Biên, Hà Nội	Long Biên	Hà Nội
Bán đất tại đường Lê Xá	pr42461635	80 m²	5 m	16 tỷ	Đông - Nam				Sổ đỏ/ Sổ hồng	21.0834687899761	105.879559391453	Đường Lê Xá, Xã Đông Hội, Đông Anh, Hà Nội	Đông Anh	Hà Nội
Căn hộ chung cư tại Khu đô thị Yên Hòa	pr42512035	100 m²		7,1 tỷ		3 phòng	2 phòng		Sổ đỏ/ Sổ hồng	21.018690849777087	105.79521919443833	Dự án Yên Hòa, Đường Dương Đình Nghệ, Phường Yên Hòa, Cầu Giấy, Hà Nội	Cầu Giấy	Hà Nội
Nhà mặt phố tại đường Quang Trung	pr42512193	52 m²		12,8 tỷ					Sổ đỏ/ Sổ hồng	20.9683152067892	105.772376734075	Đường Quang Trung, Phường Quang Trung, Hà Đông, Hà Nội	Hà Đông	Hà Nội
Nhà riêng tại đường Trường Chinh	pr42652989	42 m²	4,5 m	18,3 tỷ		4 phòng	4 phòng	Đầy đủ	Sổ đỏ/ Sổ hồng	20.9986432076404	105.83751853717	Đường Trường Chinh, Phường Phương Mai, Đống Đa, Hà Nội	Đống Đa	Hà Nội
Nhà riêng tại phường Mễ Trì	pr42524876	58 m²	4,2 m	14,3 tỷ	Tây - Bắc	5 phòng	4 phòng		Sổ đỏ/ Sổ hồng	21.0036941673466	105.78254003761	Phường Mễ Trì, Nam Từ Liêm, Hà Nội	Nam Từ Liêm	Hà Nội
Nhà riêng tại phố Nguyễn Ngọc Vũ	pr40997005	62 m²	5 m	7,2 tỷ		4 phòng	4 phòng	Cơ bản	Sổ đỏ/ Sổ hồng	21.0118023457069	105.808376002494	Phố Nguyễn Ngọc Vũ, Phường Trung Hòa, Cầu Giấy, Hà Nội	Cầu Giấy	Hà Nội
Nhà riêng tại đường Phạm Văn Đồng	pr42621951	37 m²		10,3 tỷ		3 phòng	4 phòng	Cơ bản	Sổ đỏ/ Sổ hồng	21.0730661760943	105.785389469837	Đường Phạm Văn Đồng, Phường Xuân Đỉnh, Bắc Từ Liêm, Hà Nội	Bắc Từ Liêm	Hà Nội
Nhà riêng tại đường Bồ Đề	pr42576695	45 m²	6 m	8,2 tỷ		4 phòng	3 phòng	Đầy đủ	Sổ đỏ/ Sổ hồng	21.0379529690711	105.871535176263	Đường Bồ Đề, Phường Bồ Đề, Long Biên, Hà Nội	Long Biên	Hà Nội
Bán đất tại đường Văn Phúc	pr42596918	50 m²	5 m	13,8 tỷ					Sổ đỏ/ Sổ hồng	20.9786077955149	105.771429144839	Đường Văn Phúc, Phường Phú La, Hà Đông, Hà Nội	Hà Đông	Hà Nội
Nhà riêng tại phố Thái Hà	pr42578845	68 m²	6,6 m	18 tỷ					Sổ đỏ	21.0126828255298	105.820119415407	Phố Thái Hà, Phường Trung Liệt, Đống Đa, Hà Nội	Đống Đa	Hà Nội
Nhà biệt thự, liền kề tại phố Hồng Tiến	pr42495440	59 m²	8,6 m	11,8 tỷ		5 phòng			Sổ đỏ/ Sổ hồng	21.0391183905976	105.872666952239	Phố Hồng Tiến, Phường Bồ Đề, Long Biên, Hà Nội	Long Biên	Hà Nội
Nhà riêng tại đường Trần Thái Tông	pr41690402	110 m²	7,5 m	18 tỷ		15 phòng	15 phòng	Cơ bản	Sổ đỏ/ Sổ hồng	21.0314720619648	105.788810078518	Đường Trần Thái Tông, Phường Dịch Vọng Hậu, Cầu Giấy, Hà Nội	Cầu Giấy	Hà Nội
Nhà riêng tại đường Phùng Khoang	pr42585977	90 m²	6,6 m	20,89 tỷ		21 phòng	22 phòng	Đầy đủ	Sổ đỏ/ Sổ hồng	20.9882219996996	105.793193883914	Đường Phùng Khoang, Phường Trung Văn, Nam Từ Liêm, Hà Nội	Nam Từ Liêm	Hà Nội
Căn hộ chung cư tại HC Golden City	pr42014197	148,5 m²		10,5 tỷ		4 phòng	2 phòng	Đầy đủ		21.037187295443978	105.87306190985025	HC Golden City, 319, Phố Hồng Tiến, Phường Bồ Đề, Long Biên, Hà Nội	Long Biên	Hà Nội
Nhà riêng tại đường Nguyễn Văn Cừ	pr42596794	65 m²	6 m	19,3 tỷ	Đông	4 phòng	4 phòng	Đầy đủ	Sổ đỏ/ Sổ hồng	21.0436692271135	105.872717386854	Đường Nguyễn Văn Cừ, Phường Ngọc Lâm, Long Biên, Hà Nội	Long Biên	Hà Nội
Căn hộ chung cư tại Capital Elite	pr42621879	114 m²		12,5 tỷ	Đông	3 phòng	2 phòng	Cơ bản	Sổ đỏ/ Sổ hồng	21.018616014094267	105.7813952574202	Capital Elite, 18, Đường Phạm Hùng, Phường Mỹ Đình 2, Nam Từ Liêm, Hà Nội	Nam Từ Liêm	Hà Nội
Nhà mặt phố tại đường Văn Phú	pr42405711	55 m²	5 m	20,5 tỷ				Đầy đủ	Sổ đỏ/ Sổ hồng	20.9618756565939	105.768383826465	Đường Văn Phú, Phường Phú La, Hà Đông, Hà Nội	Hà Đông	Hà Nội
Bán đất tại xã Thanh Xuân	pr42575218	109 m²	25 m	65 triệu/m²	Tây	1 phòng	1 phòng		Sổ đỏ/ Sổ hồng	21.2233570953419	105.76704316418	Đồng Sau, Thôn Thạch Lỗi, Xã Thanh Xuân, Sóc Sơn, Hà Nội	Sóc Sơn	Hà Nội
Nhà mặt phố tại đường Vân Canh	pr42455180	45 m²	3,83 m	7,8 tỷ	Đông - Bắc	4 phòng	4 phòng	Đầy đủ	Sổ đỏ/ Sổ hồng	21.0357886337211	105.732922204824	Đường Vân Canh, Xã Vân Canh, Hoài Đức, Hà Nội	Hoài Đức	Hà Nội
Căn hộ chung cư tại Times Tower Lê Văn Lương	pr42611605	107 m²		8,5 tỷ	Đông - Nam	3 phòng	2 phòng	Đầy đủ	Sổ đỏ/ Sổ hồng	21.0023396169304	105.80125942233617	Dự án Times Tower Lê Văn Lương, Đường Lê Văn Lương, Phường Nhân Chính, Thanh Xuân, Hà Nội	Thanh Xuân	Hà Nội
Nhà biệt thự, liền kề tại Vinhomes Wonder City	pr42507611	88 m²	8 m	17 tỷ		5 phòng	5 phòng	Đầy đủ	Sổ đỏ/ Sổ hồng	21.096544866489026	105.71202793462903	Dự án Vinhomes Wonder City, Xã Tân Hội, Đan Phượng, Hà Nội	Đan Phượng	Hà Nội
Nhà riêng tại phố Vũ Tông Phan	pr42652223	40 m²	5 m	7,9 tỷ		4 phòng	3 phòng	Cơ bản	Sổ đỏ/ Sổ hồng	20.9980098651096	105.817255992007	Phố Vũ Tông Phan, Phường Khương Đình, Thanh Xuân, Hà Nội	Thanh Xuân	Hà Nội
Nhà riêng tại đường Quang Trung	pr42320920	45 m²	4 m	11,4 tỷ	Đông - Bắc	6 phòng	4 phòng	Đầy đủ	Sổ đỏ/ Sổ hồng	20.9658667101875	105.767627287408	Đường Quang Trung, Phường Quang Trung, Hà Đông, Hà Nội	Hà Đông	Hà Nội
Nhà riêng tại đường Lạc Long Quân	pr42589910	30 m²		7,9 tỷ		3 phòng		Cơ bản	Sổ đỏ/ Sổ hồng	21.0608782669659	105.809015907647	Đường Lạc Long Quân, Phường Xuân La, Tây Hồ, Hà Nội	Tây Hồ	Hà Nội
Nhà riêng tại phố Kim Mã	pr42643040	56 m²	9 m	11,95 tỷ		4 phòng	3 phòng	Đầy đủ	Sổ đỏ/ Sổ hồng	21.0319809956927	105.825579478225	Phố Kim Mã, Phường Kim Mã, Ba Đình, Hà Nội	Ba Đình	Hà Nội
Nhà riêng tại đường Tây Sơn	pr42599601	55 m²		15 tỷ		5 phòng	4 phòng	Đầy đủ	Sổ đỏ/ Sổ hồng	21.009745148872	105.824423136854	Đường Tây Sơn, Phường Quang Trung, Đống Đa, Hà Nội	Đống Đa	Hà Nội
Nhà riêng tại đường Đồng Me	pr42589747	80 m²	4,1 m	26 tỷ	Tây - Nam	4 phòng	5 phòng	Đầy đủ	Sổ đỏ/ Sổ hồng	21.0118426224879	105.776788663023	Đường Đồng Me, Phường Mễ Trì, Nam Từ Liêm, Hà Nội	Nam Từ Liêm	Hà Nội
Nhà riêng tại đường Kim Ngưu	pr42576584	50 m²	4,6 m	15,9 tỷ					Sổ đỏ/ Sổ hồng	20.997787310279	105.861872648796	Đường Kim Ngưu, Phường Minh Khai, Hai Bà Trưng, Hà Nội	Hai Bà Trưng	Hà Nội
Nhà riêng tại đường Hoàng Đạo Thành	pr42652469	30,1 m²	5,16 m	10,85 tỷ				Đầy đủ	Sổ đỏ/ Sổ hồng	20.9832531325288	105.812378141164	Đường Hoàng Đạo Thành, Phường Khương Đình, Thanh Xuân, Hà Nội	Thanh Xuân	Hà Nội
Căn hộ chung cư tại Hà Nội Paragon	pr42619273	138 m²		8,5 tỷ	Tây - Bắc	3 phòng	2 phòng	Đầy đủ	Hợp đồng mua bán	21.031559061110972	105.78999324326341	Dự án Hà Nội Paragon, Phường Dịch Vọng Hậu, Cầu Giấy, Hà Nội	Cầu Giấy	Hà Nội
Bán đất tại đường Mậu Lương	pr42591550	60 m²	5 m	12,1 tỷ	Tây				Sổ đỏ/ Sổ hồng	20.9584702200429	105.794516377912	Đường Mậu Lương, Phường Kiến Hưng, Hà Đông, Hà Nội	Hà Đông	Hà Nội
Nhà riêng tại đường Tây Sơn	pr42621222	43 m²	6 m	11,5 tỷ		3 phòng	5 phòng	Đầy đủ	Sổ đỏ/ Sổ hồng	21.0046310071282	105.82164842011	Đường Tây Sơn, Phường Khương Thượng, Đống Đa, Hà Nội	Đống Đa	Hà Nội
Nhà biệt thự, liền kề tại Vinhomes Wonder City	pr42582024	96 m²		15 tỷ		5 phòng	3 phòng	Không nội thất	Hợp đồng mua bán	21.096574509847308	105.711932885622	Dự án Vinhomes Wonder City, Xã Tân Hội, Đan Phượng, Hà Nội	Đan Phượng	Hà Nội
Nhà riêng tại đường Nguyễn Trãi	pr42591761	71 m²		10,8 tỷ		4 phòng			Sổ đỏ/ Sổ hồng	20.9878799395135	105.800793689646	Đường Nguyễn Trãi, Phường Thượng Đình, Thanh Xuân, Hà Nội	Thanh Xuân	Hà Nội
Bán đất tại đường Lộc Hà	pr42611342	130 m²	13 m	145 triệu/m²						21.0927316947609	105.883223594527	Đường Lộc Hà, Xã Mai Lâm, Đông Anh, Hà Nội	Đông Anh	Hà Nội
Nhà riêng tại phố Đỗ Quang	pr41683912	75 m²	6 m	29,9 tỷ		6 phòng	6 phòng		Sổ đỏ/ Sổ hồng	21.0109235772724	105.802564308267	Phố Đỗ Quang, Phường Trung Hòa, Cầu Giấy, Hà Nội	Cầu Giấy	Hà Nội
Bán đất tại đường Ngô Thì Nhậm	pr42584334	55 m²	4 m	13,5 tỷ					Sổ đỏ/ Sổ hồng	20.9687939	105.7691422	Đường Ngô Thì Nhậm, Phường Hà Cầu, Hà Đông, Hà Nội	Hà Đông	Hà Nội
Bán đất tại đường Nguyễn Sơn	pr40512826	80 m²		20,5 tỷ					Sổ đỏ/ Sổ hồng	21.0456361	105.8807065	Đường Nguyễn Sơn, Phường Bồ Đề, Long Biên, Hà Nội	Long Biên	Hà Nội
Căn hộ chung cư tại N03-T1 Ngoại Giao Đoàn	pr42470392	95 m²		8,15 tỷ		3 phòng	2 phòng	Nội thất hiện đại đầy đủ		21.066106585122068	105.79825259985387	Dự án N03-T1 Ngoại Giao Đoàn, Phường Xuân Tảo, Bắc Từ Liêm, Hà Nội	Bắc Từ Liêm	Hà Nội
Nhà riêng tại đường Đình Thôn	pr42638869	110 m²	7 m	29,5 tỷ		19 phòng	15 phòng	Đầy đủ	Sổ đỏ/ Sổ hồng	21.0206154426845	105.774838948325	Đường Đình Thôn, Phường Mỹ Đình 1, Nam Từ Liêm, Hà Nội	Nam Từ Liêm	Hà Nội
Nhà riêng tại phố Láng Hạ	pr41929398	51 m²	6 m	16,5 tỷ					Sổ đỏ/ Sổ hồng	21.0157497083234	105.812812660893	Phố Láng Hạ, Phường Láng Hạ, Đống Đa, Hà Nội	Đống Đa	Hà Nội
Nhà biệt thự, liền kề tại Hồng Hà Tower	pr42321381	73 m²	5 m	18,35 tỷ		4 phòng	3 phòng	Đầy đủ.	Sổ đỏ/ Sổ hồng	20.97495186744808	105.85621395817637	Dự án Hồng Hà Tower, Đường Thịnh Liệt, Phường Thịnh Liệt, Hoàng Mai, Hà Nội	Hoàng Mai	Hà Nội
Bán đất tại đường Nguyễn Văn Linh	pr40189686	55 m²		7,2 tỷ					Sổ đỏ/ Sổ hồng.	21.0282276	105.9199083	Đường Nguyễn Văn Linh, Phường Thạch Bàn, Long Biên, Hà Nội	Long Biên	Hà Nội
Nhà mặt phố tại đường Tống Duy Tân	pr42600683	45 m²	5 m	20 tỷ		2 phòng	1 phòng	Cơ bản	Sổ đỏ/ Sổ hồng	21.0293803890603	105.843446133168	Đường Tống Duy Tân, Phường Hàng Bông, Hoàn Kiếm, Hà Nội	Hoàn Kiếm	Hà Nội
Nhà biệt thự, liền kề tại Khu đô thị mới Văn Quán	pr42143788	68 m²	5 m	18,8 tỷ	Tây	5 phòng	4 phòng	Đầy đủ	Sổ đỏ/ Sổ hồng	20.9741687115278	105.789294754007	KĐT Văn Quán, Đường Nguyễn Khuyến, Phường Phúc La, Hà Đông, Hà Nội	Hà Đông	Hà Nội
Nhà mặt phố tại đường Nguyễn Trãi	pr42649159	108 m²	10,6 m	29 tỷ					Sổ đỏ/ Sổ hồng	20.9725546865351	105.778872901132	Đường Nguyễn Trãi, Phường Quang Trung, Hà Đông, Hà Nội	Hà Đông	Hà Nội
Nhà riêng tại đường Hoa Lâm	pr42382020	75 m²		9,5 tỷ				Đầy đủ	Sổ đỏ/ Sổ hồng	21.0576231888176	105.895137776799	Đường Hoa Lâm, Phường Đức Giang, Long Biên, Hà Nội	Long Biên	Hà Nội
Chung cư mini, căn hộ dịch vụ tại đường Phú Đô	pr42639636	110 m²		30 tỷ		18 phòng	19 phòng	Đầy đủ	Sổ đỏ/ Sổ hồng	21.0270668818647	105.774022320244	Đường Phú Đô, Phường Mỹ Đình 2, Nam Từ Liêm, Hà Nội	Nam Từ Liêm	Hà Nội
Bán đất tại đường Vườn Đào	pr42404787	108 m²	5,45 m	24,6 tỷ					Sổ đỏ/ Sổ hồng	21.1688248533863	105.849698389096	Đường Vườn Đào, Thị trấn Đông Anh, Đông Anh, Hà Nội	Đông Anh	Hà Nội
Nhà riêng tại đường Hoàng Quốc Việt	pr42596528	65 m²	4 m	19 tỷ	Bắc	5 phòng		Đầy đủ	Sổ đỏ/ Sổ hồng	21.0461045701386	105.79900090096	Đường Hoàng Quốc Việt, Phường Nghĩa Đô, Cầu Giấy, Hà Nội	Cầu Giấy	Hà Nội
Nhà riêng tại phố Kim Mã	pr41789025	22 m²	6 m	12,8 tỷ	Đông	5 phòng	4 phòng	Cơ bản	Sổ đỏ/ Sổ hồng	21.0296644688259	105.809643830336	Ngõ 629, Phố Kim Mã, Phường Ngọc Khánh, Ba Đình, Hà Nội	Ba Đình	Hà Nội
Nhà riêng tại đường Thụy Khuê	pr42613640	48 m²	4 m	10,65 tỷ		4 phòng	3 phòng	Đầy đủ	Sổ đỏ/ Sổ hồng	21.0429237761182	105.824050832873	Đường Thụy Khuê, Phường Thụy Khuê, Tây Hồ, Hà Nội	Tây Hồ	Hà Nội
Nhà mặt phố tại phố Việt Hưng	pr41577768	78 m²	5,6 m	13 tỷ		1 phòng	1 phòng		Sổ đỏ/ Sổ hồng	21.0527268059411	105.898870469887	Phố Việt Hưng, Phường Việt Hưng, Long Biên, Hà Nội	Long Biên	Hà Nội
Nhà riêng tại đường Minh Khai	pr42235373	38 m²	4,5 m	8 tỷ		4 phòng	4 phòng	Đầy đủ	Sổ đỏ/ Sổ hồng	20.9977121147949	105.866813217794	Đường Minh Khai, Phường Vĩnh Tuy, Hai Bà Trưng, Hà Nội	Hai Bà Trưng	Hà Nội
Nhà mặt phố tại đường Kim Giang	pr42131712	193 m²		23,5 tỷ					Sổ đỏ/ Sổ hồng	20.9638920816556	105.818530442121	Đường Kim Giang, Xã Thanh Liệt, Thanh Trì, Hà Nội	Thanh Trì	Hà Nội
Bán đất tại phố Mai Dịch	pr42626611	100 m²	5 m	24,5 tỷ					Sổ đỏ	21.0428707376297	105.775186597045	Phố Mai Dịch, Phường Mai Dịch, Cầu Giấy, Hà Nội	Cầu Giấy	Hà Nội
Nhà riêng tại đường Quan Hoa	pr42510084	38 m²	3,7 m	14,5 tỷ				Đầy đủ	Sổ đỏ/ Sổ hồng	21.0402567360574	105.806185466171	Đường Quan Hoa, Phường Quan Hoa, Cầu Giấy, Hà Nội	Cầu Giấy	Hà Nội
Nhà biệt thự, liền kề tại Vinhomes Wonder City	pr42446028	104 m²	8 m	18,5 tỷ						21.095960764296155	105.7114934127531	Dự án Vinhomes Wonder City, Xã Tân Hội, Đan Phượng, Hà Nội	Đan Phượng	Hà Nội
Nhà biệt thự, liền kề tại phố Lạc Trung	pr42377041	90 m²		29 tỷ		5 phòng		Đầy đủ	Sổ đỏ/ Sổ hồng	21.00287766043	105.86573424802	Ngõ 61, Phố Lạc Trung, Phường Minh Khai, Hai Bà Trưng, Hà Nội	Hai Bà Trưng	Hà Nội
Nhà riêng tại phường Phú Diễn	pr42510690	60 m²		11,2 tỷ					Sổ đỏ/ Sổ hồng	21.0514005233643	105.766341475777	Bắc Từ Liêm, Hà Nội	Bắc Từ Liêm	Hà Nội
Bán đất tại đường Giang Biên	pr42643125	61,5 m²	5,7 m	165 triệu/m²	Đông - Nam				Sổ đỏ/ Sổ hồng	21.0631366877558	105.918642699898	Đường Giang Biên, Phường Giang Biên, Long Biên, Hà Nội	Long Biên	Hà Nội
Nhà biệt thự, liền kề tại Khu đô thị Vân Canh	pr37043616	102 m²	5 m	225 triệu/m²	Tây - Bắc				Sổ đỏ/ Sổ hồng.	21.0413055419922	105.732070922852	Dự án Khu đô thị Vân Canh, Xã Vân Canh, Hoài Đức, Hà Nội	Hoài Đức	Hà Nội
Nhà mặt phố tại đường Nguyễn Ngọc Nại	pr42615545	90 m²	4 m	28 tỷ					Sổ đỏ chính chủ.	20.9987581477005	105.826035132537	Đường Nguyễn Ngọc Nại, Phường Khương Mai, Thanh Xuân, Hà Nội	Thanh Xuân	Hà Nội
Nhà riêng tại đường Kim Ngưu	pr42485965	48 m²		7,25 tỷ		4 phòng	4 phòng	Cơ bản	Sổ đỏ/ Sổ hồng	21.0057135523083	105.861554088259	Đường Kim Ngưu, Phường Thanh Nhàn, Hai Bà Trưng, Hà Nội	Hai Bà Trưng	Hà Nội
Nhà biệt thự, liền kề tại An Lạc Green Symphony	pr42605400	135 m²		25,7 tỷ	Tây					21.033127430255586	105.73221637083847	Dự án An Lạc Green Symphony, Xã Vân Canh, Hoài Đức, Hà Nội	Hoài Đức	Hà Nội
Bán đất tại đường Giang Biên	pr42559785	100 m²	5,35 m	14,5 tỷ					Sổ đỏ/ Sổ hồng	21.0628756507556	105.917956293487	Đường Giang Biên, Phường Giang Biên, Long Biên, Hà Nội	Long Biên	Hà Nội
Nhà riêng tại phố Thái Thịnh	pr42610893	51 m²	8,6 m	7,95 tỷ		4 phòng	4 phòng		Sổ đỏ/ Sổ hồng	21.0104029232236	105.818408879225	Phố Thái Thịnh, Phường Láng Thượng, Đống Đa, Hà Nội	Đống Đa	Hà Nội
Nhà riêng tại đường Bùi Xương Trạch	pr42657671	47 m²		16,6 tỷ	Nam	4 phòng	5 phòng	Đầy đủ	Sổ đỏ/ Sổ hồng	20.9869390703741	105.81856463677	Đường Bùi Xương Trạch, Phường Khương Đình, Thanh Xuân, Hà Nội	Thanh Xuân	Hà Nội
Nhà biệt thự, liền kề tại Vinhomes Ocean Park Gia Lâm	pr41779572	150 m²		23,5 tỷ					Sổ đỏ/ Sổ hồng.	21.0032122219782	105.963981477327	Dự án Vinhomes Ocean Park Gia Lâm, Xã Dương Xá, Gia Lâm, Hà Nội	Gia Lâm	Hà Nội
Nhà biệt thự, liền kề tại Khu đô thị Văn Khê	pr42028481	85 m²	5 m	21,9 tỷ		6 phòng	6 phòng	Nội thất Châu Âu đẳng cấp	Sổ đỏ/ Sổ hồng	20.971890969999027	105.76108277349157	Dự án Văn Khê, Đường Văn Khê, Phường La Khê, Hà Đông, Hà Nội	Hà Đông	Hà Nội
Nhà riêng tại đường Khuất Duy Tiến	pr42580866	68 m²		17,9 tỷ					Sổ đỏ/ Sổ hồng	20.9952913649832	105.800460529946	Đường Khuất Duy Tiến, Phường Thanh Xuân Bắc, Thanh Xuân, Hà Nội	Thanh Xuân	Hà Nội
Nhà riêng tại đường Phan Trọng Tuệ	pr42329113	55 m²	4 m	7,15 tỷ		4 phòng	4 phòng	Đầy đủ	Sổ đỏ/ Sổ hồng	20.9438421816341	105.83817064982	Đường Phan Trọng Tuệ, Xã Tam Hiệp, Thanh Trì, Hà Nội	Thanh Trì	Hà Nội
Căn hộ chung cư tại Viha Complex	pr42524689	117 m²		95 triệu/m²		3 phòng	3 phòng	Đầy đủ	Hợp đồng mua bán	20.9976804413617	105.80377419818	Viha Complex, 107, Đường Nguyễn Tuân, Phường Thanh Xuân Trung, Thanh Xuân, Hà Nội	Thanh Xuân	Hà Nội
Nhà riêng tại đường Hoàng Ngân	pr42553391	46 m²	4 m	11 tỷ	Đông - Bắc	4 phòng	4 phòng	Cơ bản	Sổ đỏ/ Sổ hồng	21.0088425402617	105.801807360264	Đường Hoàng Ngân, Phường Trung Hòa, Cầu Giấy, Hà Nội	Cầu Giấy	Hà Nội
Nhà riêng tại đường Xuân Diệu	pr42626186	48 m²	5 m	13 tỷ	Tây - Bắc	5 phòng	5 phòng		Sổ đỏ/ Sổ hồng	21.0665558205195	105.826339591664	Ngõ 31, Đường Xuân Diệu, Phường Quảng An, Tây Hồ, Hà Nội	Tây Hồ	Hà Nội
Nhà riêng tại đường Hoàng Như Tiếp	pr41828078	46 m²	4 m	9,8 tỷ		3 phòng		Đầy đủ Sàn gỗ tự nhiên, trần thạch cao, thiết bị vệ sinh nhập khẩu, điều hoà, hệ thống chiếu sáng hiện đại.	Sổ đỏ/ Sổ hồng	21.0407218857507	105.877673894792	Đường Hoàng Như Tiếp, Phường Bồ Đề, Long Biên, Hà Nội	Long Biên	Hà Nội
Nhà riêng tại đường Thượng Đình	pr42494806	56 m²		7,05 tỷ		3 phòng	3 phòng		Sổ đỏ/ Sổ hồng	20.9974134794724	105.816021765681	Đường Thượng Đình, Phường Thượng Đình, Thanh Xuân, Hà Nội	Thanh Xuân	Hà Nội
Nhà riêng tại phố Kim Mã	pr42643982	53 m²		11,9 tỷ		4 phòng	4 phòng	Đầy đủ	Sổ đỏ/ Sổ hồng	21.0318215497189	105.825229013687	Phố Kim Mã, Phường Kim Mã, Ba Đình, Hà Nội	Ba Đình	Hà Nội
Căn hộ chung cư tại Mipec Rubik 360	pr42522094	110 m²		10,05 tỷ		3 phòng	2 phòng	Đầy đủ	Sổ đỏ/ Sổ hồng	21.037153757135982	105.78634894145583	Dự án Mipec Rubik 360, Đường Xuân Thủy, Phường Dịch Vọng Hậu, Cầu Giấy, Hà Nội	Cầu Giấy	Hà Nội
Nhà mặt phố tại phố Mai Anh Tuấn	pr40039772	60 m²	5 m	27 tỷ						21.0188862	105.8221488	Phố Mai Anh Tuấn, Phường Ô Chợ Dừa, Đống Đa, Hà Nội	Đống Đa	Hà Nội
Nhà riêng tại phố Lê Thanh Nghị	pr42591156	60 m²		12,8 tỷ		9 phòng	1 phòng		Sổ đỏ/ Sổ hồng	21.0023350991983	105.846999502915	Phố Lê Thanh Nghị, Phường Bách Khoa, Hai Bà Trưng, Hà Nội	Hai Bà Trưng	Hà Nội
Bán đất tại xã Vân Hòa	pr42599902	2.520 m²	36 m	11,2 tỷ					Sổ đỏ/ Sổ hồng	21.0800538708803	105.413828754962	Thôn Rùa, Vân Hòa, Ba Vì, Hà Nội	Ba Vì	Hà Nội
Nhà riêng tại phố Hạ Đình	pr42596748	50,6 m²	3,4 m	7,5 tỷ		5 phòng	3 phòng	Đầy đủ	Sổ đỏ/ Sổ hồng	20.9885475215566	105.810352137466	Phố Hạ Đình, Phường Hạ Đình, Thanh Xuân, Hà Nội	Thanh Xuân	Hà Nội
Nhà riêng tại phường Quan Hoa	pr42583048	60 m²	6 m	17 tỷ	Nam	20 phòng	20 phòng	Đầy đủ	Sổ đỏ/ Sổ hồng	21.0357864279633	105.79916728167	Phường Quan Hoa, Cầu Giấy, Hà Nội	Cầu Giấy	Hà Nội
Nhà riêng tại phố Hào Nam	pr42634239	30 m²	3,2 m	8,3 tỷ						21.0253857015723	105.827495150361	Phố Hào Nam, Phường Ô Chợ Dừa, Đống Đa, Hà Nội	Đống Đa	Hà Nội
Nhà riêng tại phố Hào Nam	pr42633157	81 m²	6 m	16 tỷ		15 phòng			Sổ đỏ/ Sổ hồng	21.0253955678855	105.827626276262	Phố Hào Nam, Phường Ô Chợ Dừa, Đống Đa, Hà Nội	Đống Đa	Hà Nội
Nhà biệt thự, liền kề tại Khu đô thị mới Văn Phú	pr42566030	77 m²	4,5 m	16 tỷ					Sổ đỏ/ Sổ hồng	20.95831652251528	105.7672556577026	Dự án KĐT Văn Phú, Đường Lê Trọng Tấn, Phường Phú La, Hà Đông, Hà Nội	Hà Đông	Hà Nội
Nhà riêng tại đường Nguyễn Hy Quang	pr42381905	50 m²		15,8 tỷ		4 phòng	4 phòng	Đầy đủ	Sổ đỏ/ Sổ hồng	21.0187958406927	105.826539176429	Đường Nguyễn Hy Quang, Phường Ô Chợ Dừa, Đống Đa, Hà Nội	Đống Đa	Hà Nội
Nhà riêng tại đường Bồ Đề	pr42616519	45 m²		7 tỷ		4 phòng	4 phòng	Đầy đủ	Sổ đỏ/ Sổ hồng	21.0384025615406	105.872261298009	Đường Bồ Đề, Phường Bồ Đề, Long Biên, Hà Nội	Long Biên	Hà Nội
Nhà riêng tại đường Tam Trinh	pr42585483	60 m²		11,8 tỷ		6 phòng	5 phòng			20.9735346335143	105.866324555191	Đường Tam Trinh, Phường Yên Sở, Hoàng Mai, Hà Nội	Hoàng Mai	Hà Nội
Nhà biệt thự, liền kề tại Khu đô thị mới Văn Phú	pr42598175	80 m²	4,5 m	19,5 tỷ	Đông - Nam	5 phòng	4 phòng	Đầy đủ	Sổ đỏ/ Sổ hồng	20.958613663510164	105.76705629337691	Dự án KĐT Văn Phú, Đường Lê Trọng Tấn, Phường Phú La, Hà Đông, Hà Nội	Hà Đông	Hà Nội
Bán đất tại đường Ngô Gia Tự	pr42655997	50 m²	4 m	10,5 tỷ					Sổ đỏ/ Sổ hồng	21.0659533441161	105.897731256069	Đường Ngô Gia Tự, Phường Đức Giang, Long Biên, Hà Nội	Long Biên	Hà Nội
Căn hộ chung cư tại N01-T1 Ngoại Giao Đoàn	pr42316700	133 m²		10 tỷ	Tây	3 phòng	2 phòng	Đầy đủ	Sổ đỏ/ Sổ hồng	21.06602620032774	105.79814451717758	Dự án N01-T1 Ngoại Giao Đoàn, Đường Hoàng Minh Thảo, Phường Xuân Đỉnh, Bắc Từ Liêm, Hà Nội	Bắc Từ Liêm	Hà Nội
Nhà biệt thự, liền kề tại xã Tân Lập	pr42640605	72,04 m²	5 m	12 tỷ	Đông - Bắc				Sổ đỏ/ Sổ hồng	21.0825514524278	105.714717723893	Xã Tân Lập, Đan Phượng, Hà Nội	Đan Phượng	Hà Nội
Bán đất tại đường Cổ Linh	pr41734922	90 m²	13 m	18,5 tỷ	Tây - Nam				Có sổ.	21.0289486097874	105.852447225903	Đường Cổ Linh, Phường Thạch Bàn, Long Biên, Hà Nội	Long Biên	Hà Nội
Bán đất tại đường Nhạn	pr42641318	90 m²	4,5 m	7,7 tỷ					Sổ đỏ/ Sổ hồng	21.1910891839188	105.870843646894	Đường Nhạn, Xã Xuân Nộn, Đông Anh, Hà Nội	Đông Anh	Hà Nội
Nhà riêng tại đường Lê Đức Thọ	pr42587294	46,5 m²		11,76 tỷ		13 phòng			Sổ đỏ/ Sổ hồng	21.0305626346776	105.768793611436	Đường Phú Mỹ, Mỹ Đình. hoặc Lê Đức Thọ.	Nam Từ Liêm	Hà Nội
Nhà riêng tại đường Huỳnh Thúc Kháng	pr42339844	25 m²	6 m	7,1 tỷ		3 phòng	4 phòng	Đầy đủ	Sổ đỏ/ Sổ hồng	21.0182749832126	105.811550315058	Đường Huỳnh Thúc Kháng, Phường Láng Hạ, Đống Đa, Hà Nội	Đống Đa	Hà Nội
Căn hộ chung cư tại Royal City	pr41870458	131 m²		10,5 tỷ		3 phòng	2 phòng	Đầy đủ	Sổ đỏ/ Sổ hồng	21.00259471038	105.815209321845	Dự án Royal City, Đường Nguyễn Trãi, Phường Thượng Đình, Thanh Xuân, Hà Nội	Thanh Xuân	Hà Nội
Nhà riêng tại phố Thái Hà	pr42593688	45 m²	4 m	15 tỷ		4 phòng		Đầy đủ	Sổ đỏ/ Sổ hồng	21.0128435071829	105.820037038437	Phố Thái Hà, Phường Trung Liệt, Đống Đa, Hà Nội	Đống Đa	Hà Nội
Nhà biệt thự, liền kề tại Khu đô thị Duyên Thái	pr41123596	102 m²	5 m	12 tỷ	Đông	4 phòng	5 phòng		Sổ đỏ/ Sổ hồng	20.8988830570593	105.867041833217	Dự án Khu đô thị Duyên Thái, Xã Duyên Thái, Thường Tín, Hà Nội	Thường Tín	Hà Nội
Nhà mặt phố tại phố Trung Hòa	pr42586454	45 m²	5 m	26 tỷ		4 phòng			Sổ phân lô.	21.0120600139826	105.8011446849	Phố Trung Hòa, Phường Trung Hòa, Cầu Giấy, Hà Nội	Cầu Giấy	Hà Nội
Nhà mặt phố tại đường Khương Đình	pr42557140	35 m²	3,67 m	12,3 tỷ		6 phòng			Sổ đỏ/ Sổ hồng	20.9912351219515	105.813746105139	Đường Khương Đình, Phường Khương Đình, Thanh Xuân, Hà Nội	Thanh Xuân	Hà Nội
Bán đất tại đường Bắc Cầu 3	pr39188904	350 m²	11 m	12,5 tỷ					Sổ đỏ/ Sổ hồng.	21.0616843	105.8619652	Đường Bắc Cầu 3, Phường Ngọc Thụy, Long Biên, Hà Nội	Long Biên	Hà Nội
Nhà riêng tại đường Bùi Huy Bích	pr42190489	65 m²	5 m	15 tỷ					Sổ đỏ	20.9676196134843	105.844896767556	Đường Bùi Huy Bích, Phường Hoàng Liệt, Hoàng Mai, Hà Nội	Hoàng Mai	Hà Nội
Nhà riêng tại đường An Dương Vương	pr42603078	182 m²	13,5 m	150 triệu/m²					Sổ đỏ/ Sổ hồng	21.0899474209745	105.804745848046	Đường An Dương Vương, Phường Phú Thượng, Tây Hồ, Hà Nội	Tây Hồ	Hà Nội
Nhà mặt phố tại đường Bế Văn Đàn	pr42507572	60 m²	3,6 m	20 tỷ	Đông - Nam	4 phòng	5 phòng		Sổ đỏ/ Sổ hồng	20.9701263834367	105.773500512052	Đường Bế Văn Đàn, Phường Quang Trung, Hà Đông, Hà Nội	Hà Đông	Hà Nội
Căn hộ chung cư tại The Zen Residence	pr37515522	95 m²		7,1 tỷ		3 phòng		Đầy đủ.	Sổ đỏ/ Sổ hồng.	20.9717617034912	105.878929138184	Dự án The Zen Residence, Đường Pháp Vân, Phường Yên Sở, Hoàng Mai, Hà Nội	Hoàng Mai	Hà Nội
Shophouse, nhà phố thương mại tại Eco Lake View	pr42548238	136,2 m²	10 m	16,6 tỷ	Đông			Không nội thất.	Sổ đỏ/ Sổ hồng	20.97311578732463	105.83856601465727	Eco Lake View, 32, Đường Đại Từ, Phường Đại Kim, Hoàng Mai, Hà Nội	Hoàng Mai	Hà Nội
Nhà riêng tại đường Trương Định	pr42586463	60 m²	4,1 m	9,2 tỷ		4 phòng	4 phòng	Đầy đủ.	Sổ đỏ/ Sổ hồng	20.9838702473137	105.846337679217	Đường Trương Định, Phường Tân Mai, Hoàng Mai, Hà Nội	Hoàng Mai	Hà Nội
Nhà riêng tại phố Giảng Võ	pr42588642	36 m²	3,5 m	7,12 tỷ		4 phòng	5 phòng	Đầy đủ	Sổ đỏ/ Sổ hồng	21.0261240437661	105.823257016604	Phố Giảng Võ, Phường Giảng Võ, Ba Đình, Hà Nội	Ba Đình	Hà Nội
Nhà riêng tại phố Phạm Tuấn Tài	pr42390030	70 m²	10 m	18,5 tỷ		4 phòng	5 phòng	Đầy đủ	Sổ đỏ/ Sổ hồng	21.0437152376973	105.786115285654	Phố Phạm Tuấn Tài, Phường Dịch Vọng, Cầu Giấy, Hà Nội	Cầu Giấy	Hà Nội
Nhà riêng tại đường Khương Đình	pr42581395	40 m²	8 m	12,6 tỷ	Bắc	4 phòng	4 phòng	Đầy đủ	Sổ đỏ/ Sổ hồng	20.9919330168139	105.813255127799	Đường Khương Đình, Phường Hạ Đình, Thanh Xuân, Hà Nội	Thanh Xuân	Hà Nội
Nhà riêng tại phường Thịnh Quang	pr42610307	43 m²		12,5 tỷ						21.0088160975293	105.817673124463	Phường Thịnh Quang, Đống Đa, Hà Nội	Đống Đa	Hà Nội
Nhà riêng tại phố Trần Bình	pr42640208	55 m²	4 m	16,2 tỷ		9 phòng			Sổ đỏ/ Sổ hồng	21.0359019322067	105.778256945604	Phố Trần Bình, Phường Mai Dịch, Cầu Giấy, Hà Nội	Cầu Giấy	Hà Nội
Nhà riêng tại phố Ngọc Trì	pr42653124	50 m²	5 m	8,5 tỷ		3 phòng	4 phòng	Đầy đủ	Sổ đỏ/ Sổ hồng	21.0205684065206	105.911459993488	Phố Ngọc Trì, Phường Long Biên, Long Biên, Hà Nội	Long Biên	Hà Nội
Nhà riêng tại đường Giáp Nhất	pr42398436	58,2 m²		15,5 tỷ		14 phòng	15 phòng	Đầy đủ	Sổ đỏ/ Sổ hồng	21.0073222653187	105.815102798408	Tổ 19, Phường Khương trung , Thanh Xuân, Hà Nội	Thanh Xuân	Hà Nội
Bán đất tại phố Vạn Phúc	pr42546773	77 m²	5 m	19,8 tỷ					Sổ đỏ/ Sổ hồng	20.9754407368062	105.786374052415	Phố Vạn Phúc, Phường Vạn Phúc, Hà Đông, Hà Nội	Hà Đông	Hà Nội
Bán đất tại đường Tàm Xá	pr42609920	120 m²	5 m	125 triệu/m²	Nam				Sổ đỏ/ Sổ hồng	21.0960079824205	105.834677644693	Đường Tàm Xá, Xã Tàm Xá, Đông Anh, Hà Nội	Đông Anh	Hà Nội
Nhà biệt thự, liền kề tại Khu đô thị mới Văn Phú	pr38147823	73 m²	5 m	18,69 tỷ		4 phòng	5 phòng	Đầy đủ	Sổ đỏ/ Sổ hồng	20.958925616510676	105.76784858063932	Dự án KĐT Văn Phú, Đường Phúc La - Văn Phú, Phường Phú La, Hà Đông, Hà Nội	Hà Đông	Hà Nội
Nhà riêng tại phố Vạn Phúc	pr42605859	50 m²		14 tỷ		10 phòng		Đầy đủ	Sổ đỏ/ Sổ hồng	20.9749665479887	105.786948061861	Phố Vạn Phúc, Phường Vạn Phúc, Hà Đông, Hà Nội	Hà Đông	Hà Nội
Căn hộ chung cư tại N03-T6 Ngoại Giao Đoàn	pr42593755	134 m²		11,95 tỷ		3 phòng	2 phòng		Sổ đỏ/ Sổ hồng	21.065295846073337	105.79719999305526	Dự án N03-T6 Ngoại Giao Đoàn, Phường Xuân Tảo, Bắc Từ Liêm, Hà Nội	Bắc Từ Liêm	Hà Nội
Bán đất tại đường Nguyễn Khang	pr42551646	63 m²	4,5 m	13,8 tỷ	Đông - Nam				Sổ đỏ/ Sổ hồng	21.0292519771042	105.800404362763	445, Đường Nguyễn Khang, Phường Quan Hoa, Cầu Giấy, Hà Nội	Cầu Giấy	Hà Nội
Nhà riêng tại đường Tình Quang	pr42591182	50 m²	11 m	7,5 tỷ					Sổ đỏ/ Sổ hồng.	21.0687674146073	105.920482975497	Đường Tình Quang, Phường Giang Biên, Long Biên, Hà Nội	Long Biên	Hà Nội
Nhà biệt thự, liền kề tại Hinode Royal Park	pr42583513	100 m²	5 m	20,8 tỷ	Tây - Bắc	6 phòng	5 phòng	Không nội thất	Hợp đồng mua bán	21.05631421448207	105.71622294253709	Dự án Hinode Royal Park, Đường Quốc lộ 32, Xã Di Trạch, Hoài Đức, Hà Nội	Hoài Đức	Hà Nội
Bán đất tại đường Mai Châu	pr42591282	96 m²	4,93 m	7,5 tỷ	Đông - Nam				Sổ đỏ/ Sổ hồng	21.1159574641462	105.757319760312	Đường Mai Châu, Xã Đại Mạch, Đông Anh, Hà Nội	Đông Anh	Hà Nội
Nhà riêng tại phố Kim Mã	pr42601528	85 m²		30 tỷ	Tây	10 phòng	10 phòng	Đầy đủ	Sổ đỏ/ Sổ hồng	21.0315106709905	105.825146767309	Phố Kim Mã, Phường Kim Mã, Ba Đình, Hà Nội	Ba Đình	Hà Nội
Nhà riêng tại đường Phố Lụa	pr42605552	36 m²		8,9 tỷ		3 phòng	4 phòng	Đầy đủ	Sổ đỏ/ Sổ hồng	20.9800492831306	105.774020196497	Đường Phố Lụa, Phường Vạn Phúc, Hà Đông, Hà Nội	Hà Đông	Hà Nội
Nhà riêng tại đường Tứ Liên	pr42348856	100 m²	6,2 m	20 tỷ		4 phòng	4 phòng	Đầy đủ	Sổ đỏ/ Sổ hồng	21.069438337497	105.838094677253	Đường Tứ Liên, Phường Tứ Liên, Tây Hồ, Hà Nội	Tây Hồ	Hà Nội
Nhà biệt thự, liền kề tại La Casta Văn Phú	pr42636780	74 m²	5 m	25,6 tỷ	Tây - Nam	6 phòng	5 phòng	Đầy đủ	Sổ đỏ/ Sổ hồng	20.963014053347337	105.76284024910511	Dự án La Casta Văn Phú, Đường Lê Trọng Tấn, Phường Phú La, Hà Đông, Hà Nội	Hà Đông	Hà Nội
Nhà riêng tại phố Dịch Vọng Hậu	pr42544677	40 m²		9,2 tỷ		5 phòng	3 phòng	Cơ bản	Sổ đỏ/ Sổ hồng	21.0305742495967	105.78597776484	Phố Dịch Vọng Hậu, Phường Dịch Vọng Hậu, Cầu Giấy, Hà Nội	Cầu Giấy	Hà Nội
Căn hộ chung cư tại The Nelson Private Residences	pr42069320	106 m²		13,4 tỷ		3 phòng	2 phòng	Cơ bản	Hợp đồng mua bán	21.020225586867063	105.81919702840575	Dự án The Nelson Private Residences, Phố Láng Hạ, Phường Thành Công, Ba Đình, Hà Nội	Ba Đình	Hà Nội
Nhà biệt thự, liền kề tại đường Yên Xá	pr42651609	65 m²		15,5 tỷ		4 phòng		Cơ bản	Sổ đỏ/ Sổ hồng	20.9680122497368	105.796666932513	Đường Yên Xá, Xã Tân Triều, Thanh Trì, Hà Nội	Thanh Trì	Hà Nội
Nhà riêng tại đường Cầu Diễn	pr41943439	40 m²	4,5 m	7 tỷ				Đầy đủ.	Sổ đỏ/ Sổ hồng	21.0478015599511	105.745681926306	Đường Cầu Diễn, Phường Minh Khai, Bắc Từ Liêm, Hà Nội	Bắc Từ Liêm	Hà Nội
Nhà biệt thự, liền kề tại Khu đô thị Geleximco - Lê Trọng Tấn	pr42503505	95 m²	5 m	21 tỷ	Đông - Nam			Không nội thất	Sổ đỏ/ Sổ hồng	20.9799856670003	105.74205419722684	Dự án Geleximco Lê Trọng Tấn, Đường Lê Trọng Tấn, Phường Dương Nội, Hà Đông, Hà Nội	Hà Đông	Hà Nội
Nhà riêng tại phố Hào Nam	pr42641205	38 m²	3,8 m	8,5 tỷ		3 phòng	3 phòng	Đầy đủ	Sổ đỏ/ Sổ hồng	21.0277784962747	105.827814451623	Phố Hào Nam, Phường Cát Linh, Đống Đa, Hà Nội	Đống Đa	Hà Nội
Căn hộ chung cư tại Sunshine Green Iconic	pr42450846	108 m²		8,1 tỷ		3 phòng	2 phòng	Đầy đủ	Hợp đồng mua bán	21.0410085505198	105.896769714091	Sunshine Green Iconic, Phúc Đồng, Long Biên, Hà Nội	Long Biên	Hà Nội
Nhà mặt phố tại đường Ngọc Hồi	pr42587128	160 m²	4,2 m	16,1 tỷ		4 phòng	4 phòng	Đầy đủ	Sổ đỏ/ Sổ hồng	20.9268388290174	105.849863953517	Đường Ngọc Hồi, Xã Ngọc Hồi, Thanh Trì, Hà Nội	Thanh Trì	Hà Nội
Căn hộ chung cư tại 6th Element	pr42570109	109 m²		12 tỷ	Nam	3 phòng	2 phòng	Đầy đủ nội thất cao cấp, hiện đại.	Sổ đỏ/ Sổ hồng	21.059187889306376	105.80374977615354	Dự án 6th Element, Phường Xuân La, Tây Hồ, Hà Nội	Tây Hồ	Hà Nội
Nhà riêng tại đường Huỳnh Thúc Kháng	pr42577361	54 m²	5 m	26,2 tỷ		8 phòng	8 phòng	Đầy đủ	Sổ đỏ/ Sổ hồng	21.0182075882006	105.811258764636	Đường Huỳnh Thúc Kháng, Phường Láng Hạ, Đống Đa, Hà Nội	Đống Đa	Hà Nội
Bán đất tại xã Hưng Đạo	pr41549669	882 m²	45 m	18 tỷ					Sổ đỏ/ Sổ hồng	20.9630193016559	105.711761727047	Xã Đại Thành, Quốc Oai, Hà Nội	Quốc Oai	Hà Nội
Nhà riêng tại phố Chùa Bộc	pr42340452	99 m²	24 m	30 tỷ		10 phòng		Đầy đủ	Sổ đỏ/ Sổ hồng	21.007486419338	105.827927565967	Phố Chùa Bộc, Phường Quang Trung, Đống Đa, Hà Nội	Đống Đa	Hà Nội
Nhà mặt phố tại đường Nguyễn Trãi	pr42501232	35 m²		15,5 tỷ		5 phòng	4 phòng	Cơ bản	Sổ đỏ/ Sổ hồng	20.9874466556682	105.800521166762	Đường Nguyễn Trãi, Phường Thanh Xuân Trung, Thanh Xuân, Hà Nội	Thanh Xuân	Hà Nội
Nhà riêng tại phố Vạn Phúc	pr42607309	36 m²	4,2 m	7,9 tỷ	Đông	3 phòng	4 phòng	Cơ bản	Sổ đỏ/ Sổ hồng	20.9752257560703	105.786850193082	Phố Vạn Phúc, Phường Vạn Phúc, Hà Đông, Hà Nội	Hà Đông	Hà Nội
Nhà riêng tại đường Văn Cao	pr42652723	39 m²	4,3 m	13 tỷ		6 phòng	5 phòng		Sổ đỏ/ Sổ hồng	21.0403569587577	105.816082302284	Đường Văn Cao, Phường Liễu Giai, Ba Đình, Hà Nội	Ba Đình	Hà Nội
Nhà riêng tại đường Trần Khát Chân	pr42606751	43 m²	5 m	7,5 tỷ		3 phòng	3 phòng		Sổ đỏ/ Sổ hồng	21.0088217227831	105.863210639826	Đường Trần Khát Chân, Phường Thanh Lương, Hai Bà Trưng, Hà Nội	Hai Bà Trưng	Hà Nội
Nhà riêng tại đường Hoàng Đạo Thành	pr42620245	45 m²	4 m	13,6 tỷ		3 phòng	5 phòng	Đầy đủ	Sổ đỏ/ Sổ hồng	20.9827775595842	105.812877888507	Đường Hoàng Đạo Thành, Phường Hạ Đình, Thanh Xuân, Hà Nội	Thanh Xuân	Hà Nội
Nhà riêng tại đường Trường Chinh	pr42537320	38 m²		7,4 tỷ				Đầy đủ	Sổ đỏ/ Sổ hồng	20.99969695463163	105.83535845950222	Đường Trường Chinh, Phường Phương Mai, Đống Đa, Hà Nội	Đống Đa	Hà Nội
Nhà riêng tại phố Phùng Chí Kiên	pr41819619	35 m²	6,2 m	10,95 tỷ		3 phòng	3 phòng	Đầy đủ	Sổ đỏ/ Sổ hồng	21.043289211468	105.802700852404	Phố Phùng Chí Kiên, Phường Nghĩa Đô, Cầu Giấy, Hà Nội	Cầu Giấy	Hà Nội
Nhà biệt thự, liền kề tại đường Nguyễn Văn Lộc	pr42610598	85,5 m²		26,5 tỷ					Sổ đỏ/ Sổ hồng	20.9852363120942	105.785779954872	Đường Nguyễn Văn Lộc, Phường Mỗ Lao, Hà Đông, Hà Nội	Hà Đông	Hà Nội
Nhà riêng tại đường Cửu Việt 2	pr38053070	67 m²	5,8 m	8,5 tỷ		3 phòng	3 phòng		Sổ đỏ/ Sổ hồng	21.0087935	105.9377055	Đường Cửu Việt 2, Thị trấn Trâu Quỳ, Gia Lâm, Hà Nội	Gia Lâm	Hà Nội
Nhà riêng tại phố Quan Nhân	pr42629881	40 m²		11,5 tỷ		5 phòng	4 phòng		Sổ đỏ/ Sổ hồng	21.0032943128195	105.811009244092	Phố Quan Nhân, Phường Nhân Chính, Thanh Xuân, Hà Nội	Thanh Xuân	Hà Nội
Nhà riêng tại đường Đội Cấn	pr42633071	102 m²	5,2 m	22,8 tỷ		4 phòng	4 phòng	Cơ bản	Sổ đỏ/ Sổ hồng	21.0380100340768	105.810535100419	Đường Đội Cấn, Phường Cống Vị, Ba Đình, Hà Nội	Ba Đình	Hà Nội
Nhà riêng tại đường Ngọc Thụy	pr42597603	55 m²	5 m	14 tỷ		3 phòng	3 phòng	Đầy đủ	Sổ đỏ/ Sổ hồng	21.0499774138283	105.867079902155	Đường Ngọc Thụy, Phường Ngọc Thụy, Long Biên, Hà Nội	Long Biên	Hà Nội
Nhà mặt phố tại phố Phùng Chí Kiên	pr42620244	55 m²		24,9 tỷ					Sổ đỏ/ Sổ hồng	21.0428560125027	105.802553112417	Phố Phùng Chí Kiên, Phường Quan Hoa, Cầu Giấy, Hà Nội	Cầu Giấy	Hà Nội
Nhà riêng tại phố Hào Nam	pr41742058	65 m²		9,6 tỷ		3 phòng	2 phòng	Cơ bản	Sổ đỏ/ Sổ hồng	21.0255420146543	105.827568333223	Phố Hào Nam, Phường Ô Chợ Dừa, Đống Đa, Hà Nội	Đống Đa	Hà Nội
Bán đất tại xã Hải Bối	pr42623550	80 m²		14,5 tỷ					Sổ đỏ/ Sổ hồng	21.1118294454053	105.803949975976	Xã Hải Bối, Đông Anh, Hà Nội	Đông Anh	Hà Nội
Nhà riêng tại đường Giải Phóng	pr42593785	33 m²	4 m	7,66 tỷ		4 phòng	5 phòng	Đầy đủ	Sổ đỏ/ Sổ hồng	20.9758257511604	105.840824296286	Đường Giải Phóng, Phường Thịnh Liệt, Hoàng Mai, Hà Nội	Hoàng Mai	Hà Nội
Bán đất tại đường Lê Quang Đạo	pr42643792	50 m²	5 m	13,2 tỷ	Tây - Bắc				Sổ đỏ/ Sổ hồng	20.9796215214808	105.743581528251	Đường Lê Quang Đạo, Phường Dương Nội, Hà Đông, Hà Nội	Hà Đông	Hà Nội
Nhà mặt phố tại đường Phan Đình Giót	pr42485295	50 m²	6 m	14,5 tỷ	Tây - Nam			Đầy đủ	Sổ đỏ/ Sổ hồng	20.9908946410497	105.838510849831	Đường Phan Đình Giót, Phường Phương Liệt, Thanh Xuân, Hà Nội	Thanh Xuân	Hà Nội
Nhà riêng tại đường Võng Thị	pr33706429	55 m²	5 m	16,5 tỷ				Đầy đủ	Sổ đỏ/ Sổ hồng	21.0514559	105.8109757	Đường Võng Thị, Phường Bưởi, Tây Hồ, Hà Nội	Tây Hồ	Hà Nội
Nhà mặt phố tại đường Thịnh Liệt	pr42594861	44 m²	4 m	12,8 tỷ		4 phòng			Sổ đỏ/ Sổ hồng	20.9709269157728	105.84448602939	Đường Thịnh Liệt, Phường Thịnh Liệt, Hoàng Mai, Hà Nội	Hoàng Mai	Hà Nội
Nhà biệt thự, liền kề tại phường Ngọc Thụy	pr42604988	189 m²	16 m	26,5 tỷ	Đông	4 phòng	4 phòng	Đầy đủ	Sổ đỏ/ Sổ hồng	21.0592946044804	105.868385230404	Phường Ngọc Thụy, Long Biên, Hà Nội	Long Biên	Hà Nội
Shophouse, nhà phố thương mại tại Him Lam Thường Tín	pr42467022	78,9 m²		17 tỷ						20.87153642762195	105.86300393430852	Dự án Him Lam Thường Tín, Đường 427, Thị trấn Thường Tín, Thường Tín, Hà Nội	Thường Tín	Hà Nội
Nhà riêng tại phố Thái Thịnh	pr42450511	50 m²	4 m	15,7 tỷ		8 phòng	6 phòng		Sổ đỏ/ Sổ hồng	21.0123716973952	105.817301391601	Phố Thái Thịnh, Phường Láng Hạ, Đống Đa, Hà Nội	Đống Đa	Hà Nội
Nhà riêng tại đường Ngọc Thụy	pr42645823	100 m²	5 m	26,4 tỷ		4 phòng	6 phòng	Cơ bản	Sổ đỏ/ Sổ hồng	21.0499654831475	105.866723193909	Đường Ngọc Thụy, Phường Ngọc Thụy, Long Biên, Hà Nội	Long Biên	Hà Nội
Nhà riêng tại đường Võ Chí Công	pr42573583	85 m²		17 tỷ	Đông	12 phòng	13 phòng	Đầy đủ	Sổ đỏ/ Sổ hồng	21.0597396206933	105.804522356865	Đường Võ Chí Công, Phường Xuân La, Tây Hồ, Hà Nội	Tây Hồ	Hà Nội
Bán đất tại đường Phan Kế Toại	pr42640417	50 m²	6 m	12,75 tỷ					Sổ đỏ/ Sổ hồng	20.9814343155789	105.751828300122	Đường Phan Kế Toại, Phường Dương Nội, Hà Đông, Hà Nội	Hà Đông	Hà Nội
Nhà riêng tại phường Xuân La	pr42596427	32 m²		7,9 tỷ					Sổ đỏ/ Sổ hồng	21.0620794316824	105.807464937504	Phường Xuân La, Tây Hồ, Hà Nội	Tây Hồ	Hà Nội
Căn hộ chung cư tại GoldSeason	pr39383405	101 m²		7,6 tỷ		3 phòng	2 phòng	Đầy đủ	Sổ đỏ/ Sổ hồng	20.9947719573975	105.806129455566	GoldSeason, 47, Đường Nguyễn Tuân, Phường Thanh Xuân Trung, Thanh Xuân, Hà Nội	Thanh Xuân	Hà Nội
Căn hộ chung cư tại Mipec Rubik 360	pr42574463	108 m²		8,9 tỷ	Tây - Nam	3 phòng	2 phòng	Đầy đủ	Sổ đỏ/ Sổ hồng	21.037364682728953	105.78648704855333	Dự án Mipec Rubik 360, Đường Xuân Thủy, Phường Dịch Vọng Hậu, Cầu Giấy, Hà Nội	Cầu Giấy	Hà Nội
Nhà riêng tại phố Ngọc Trì	pr42580533	55 m²	5 m	11,8 tỷ	Tây	4 phòng	5 phòng	Đầy đủ	Sổ đỏ/ Sổ hồng	21.0225084347554	105.91405583834	Phố Ngọc Trì, Phường Thạch Bàn, Long Biên, Hà Nội	Long Biên	Hà Nội
Nhà riêng tại đường Đào Tấn	pr41550465	100 m²		20,9 tỷ				Đầy đủ	Sổ đỏ/ Sổ hồng	21.0324234593931	105.808649674263	Đường Đào Tấn, Phường Liễu Giai, Ba Đình, Hà Nội	Ba Đình	Hà Nội
Nhà biệt thự, liền kề tại Khu biệt thự Vườn Cam - Orange Graden	pr38953389	200 m²	10 m	130 triệu/m²	Tây - Bắc	4 phòng	5 phòng		Hợp đồng mua bán	21.028978339326386	105.72059443213155	Dự án Vườn Cam Vinapol, Xã Vân Canh, Hoài Đức, Hà Nội	Hoài Đức	Hà Nội
Căn hộ chung cư tại Cầu Giấy Center Point	pr42608233	79 m²		7,3 tỷ		2 phòng	2 phòng	Đầy đủ	Sổ đỏ/ Sổ hồng	21.03232296720588	105.80035251739409	Dự án Cầu Giấy Center Point, Đường Cầu Giấy, Phường Quan Hoa, Cầu Giấy, Hà Nội	Cầu Giấy	Hà Nội
Nhà riêng tại đường Trịnh Văn Bô	pr42557455	97 m²	5 m	28 tỷ		20 phòng	20 phòng	Đầy đủ	Sổ đỏ/ Sổ hồng	21.0381302050842	105.746512760063	Ngõ 324, Đường Trịnh Văn Bô, Phường Phương Canh, Nam Từ Liêm, Hà Nội	Nam Từ Liêm	Hà Nội
Nhà riêng tại đường 1A	pr42578720	60 m²	5,5 m	11,4 tỷ	Bắc	4 phòng	5 phòng	Cơ bản	Sổ đỏ/ Sổ hồng	20.9379658850436	105.844845234941	Đường 1A, Xã Vĩnh Quỳnh, Thanh Trì, Hà Nội	Thanh Trì	Hà Nội
Nhà mặt phố tại đường Đặng Tiến Đông	pr42646060	59 m²	4,5 m	19,5 tỷ		3 phòng			Sổ đỏ/ Sổ hồng	21.0142349965689	105.821795397406	Đường Đặng Tiến Đông, Phường Trung Liệt, Đống Đa, Hà Nội	Đống Đa	Hà Nội
Nhà riêng tại phố Thái Hà	pr42462459	45 m²		9,25 tỷ		4 phòng	3 phòng		Sổ đỏ/ Sổ hồng	21.0124153360244	105.820186443729	Ngõ 117, Phố Thái Hà, Phường Trung Liệt, Đống Đa, Hà Nội	Đống Đa	Hà Nội
Nhà mặt phố tại phố Phố Vọng	pr42373276	60 m²	4,7 m	26,9 tỷ		6 phòng	9 phòng	Đầy đủ	Sổ đỏ/ Sổ hồng	20.9965707969393	105.842808885072	Phố Phố Vọng, Phường Đồng Tâm, Hai Bà Trưng, Hà Nội	Hai Bà Trưng	Hà Nội
Nhà riêng tại đường Hoàng Hoa Thám	pr42623908	47 m²		11,3 tỷ					Sổ đỏ/ Sổ hồng	21.045918576889	105.81137755509	Đường Hoàng Hoa Thám, Phường Vĩnh Phúc, Ba Đình, Hà Nội	Ba Đình	Hà Nội
Căn hộ chung cư tại Golden Park Tower	pr42600550	81,6 m²		8 tỷ		2 phòng	2 phòng	Đầy đủ	Sổ đỏ/ Sổ hồng	21.026863439813916	105.788215765589	Dự án Golden Park Tower, Đường Phạm Văn Bạch, Phường Yên Hòa, Cầu Giấy, Hà Nội	Cầu Giấy	Hà Nội
Nhà biệt thự, liền kề tại Khu đô thị mới Văn Phú	pr41267396	91 m²		17,4 tỷ		5 phòng	5 phòng		Sổ đỏ/ Sổ hồng	20.9580412919036	105.766808017434	KĐT Văn Phú, Đường Lê Trọng Tấn, Phường Phú La, Hà Đông, Hà Nội	Hà Đông	Hà Nội
Bán đất tại phường Vạn Phúc	pr42465804	51 m²		7,7 tỷ						20.9801813856478	105.772039281489	Phường Vạn Phúc, Hà Đông, Hà Nội	Hà Đông	Hà Nội
Nhà biệt thự, liền kề tại Imperia Sola Park	pr42217286	47 m²		8 tỷ					Sổ đỏ/ Sổ hồng	21.009248488156697	105.74316516365224	Dự án Imperia Sola Park, Phường Tây Mỗ, Nam Từ Liêm, Hà Nội	Nam Từ Liêm	Hà Nội
Nhà mặt phố tại đường 23B	pr42595850	86 m²	6 m	15,4 tỷ	Đông - Bắc				Sổ đỏ/ Sổ hồng	21.1539596012689	105.816167674211	Đường 23B, Xã Vân Nội, Đông Anh, Hà Nội	Đông Anh	Hà Nội
Căn hộ chung cư tại Diamond Park Plaza	pr42642041	124 m²		13,5 tỷ		3 phòng				21.018978	105.81591	Diamond Park Plaza , 16, Phố Láng Hạ, Phường Thành Công, Ba Đình, Hà Nội	Ba Đình	Hà Nội
Nhà riêng tại đường Kim Đồng	pr42158054	50 m²		21,9 tỷ		4 phòng	6 phòng		Sổ đỏ/ Sổ hồng	20.9838735479065	105.84309860728	Đường Kim Đồng, Phường Giáp Bát, Hoàng Mai, Hà Nội	Hoàng Mai	Hà Nội
Nhà riêng tại đường Quan Hoa	pr42622108	90 m²		17,5 tỷ		36 phòng	36 phòng	Đầy đủ	Sổ đỏ/ Sổ hồng	21.0402047233962	105.806402289926	Đường Quan Hoa, Phường Quan Hoa, Cầu Giấy, Hà Nội	Cầu Giấy	Hà Nội
Chung cư mini, căn hộ dịch vụ tại đường Tôn Thất Tùng	pr42652918	95 m²		20,5 tỷ		26 phòng	26 phòng	Đầy đủ	Sổ đỏ/ Sổ hồng	21.002293581911	105.829711562182	Đường Tôn Thất Tùng, Phường Khương Thượng, Đống Đa, Hà Nội	Đống Đa	Hà Nội
Căn hộ chung cư tại Imperial Plaza	pr42101696	130 m²		8 tỷ		4 phòng	3 phòng	Đầy đủ	Sổ đỏ/ Sổ hồng	20.9848105445838	105.838721994266	Imperial Plaza, 360, Đường Giải Phóng, Phường Phương Liệt, Thanh Xuân, Hà Nội	Thanh Xuân	Hà Nội
Nhà riêng tại đường Trần Phú	pr41839790	46 m²	3,5 m	10,57 tỷ		2 phòng	3 phòng	Cơ bản	Sổ đỏ/ Sổ hồng	20.975148518611	105.785494317632	Đường Trần Phú, Phường Văn Quán, Hà Đông, Hà Nội	Hà Đông	Hà Nội
Căn hộ chung cư tại Bamboo Airways Tower	pr42642609	98 m²		8,8 tỷ		3 phòng	2 phòng	Cơ bản	Sổ đỏ/ Sổ hồng	21.034520457070364	105.79548639872843	Bamboo Airways Tower, Cầu Giấy, Dịch Vọng, Cầu Giấy, Hà Nội	Cầu Giấy	Hà Nội
Nhà biệt thự, liền kề tại Khu đô thị Trung Văn - Vinaconex 3	pr42493594	69 m²	5 m	26 tỷ		5 phòng	4 phòng	Đầy đủ	Sổ đỏ/ Sổ hồng	20.993869527439738	105.77989741807174	Dự án KĐT Trung Văn - Vinaconex 3, Đường Tố Hữu, Phường Trung Văn, Nam Từ Liêm, Hà Nội	Nam Từ Liêm	Hà Nội
Bán đất tại xã Phú Mãn	pr41763843	550 m²	8 m	13,5 triệu/m²					Sổ đỏ	20.9527776546574	105.528611289719	Xã Phú Mãn, Quốc Oai, Hà Nội	Quốc Oai	Hà Nội
Nhà mặt phố tại đường Chiến Thắng	pr42638795	64 m²	4 m	29,2 tỷ					Sổ đỏ/ Sổ hồng	20.9793756097938	105.796417543868	Đường Chiến Thắng, Phường Văn Quán, Hà Đông, Hà Nội	Hà Đông	Hà Nội
Nhà biệt thự, liền kề tại Khai Sơn Hill	pr40239865	100 m²	6,2 m	19 tỷ	Bắc	4 phòng	6 phòng		Hợp đồng mua bán	21.069172297848862	105.87835944057507	Dự án Khai Sơn Hill, Đường Ngọc Thụy, Phường Thượng Thanh, Long Biên, Hà Nội	Long Biên	Hà Nội
Nhà riêng tại phố Lê Thanh Nghị	pr42593936	54 m²	4,6 m	12,8 tỷ		9 phòng	9 phòng	Đầy đủ	Sổ đỏ/ Sổ hồng	21.0019815236078	105.846777123784	Phố Lê Thanh Nghị, Phường Bách Khoa, Hai Bà Trưng, Hà Nội	Hai Bà Trưng	Hà Nội
Căn hộ chung cư tại PentStudio	pr40948916	179 m²		18 tỷ	Tây - Nam	2 phòng	2 phòng	Đầy đủ	Sổ đỏ/ Sổ hồng	21.0640926361084	105.80973815917969	Dự án PentStudio, Đường Lạc Long Quân, Phường Phú Thượng, Tây Hồ, Hà Nội	Tây Hồ	Hà Nội
Nhà riêng tại đường Hoàng Mai	pr42591889	69 m²	4 m	10,5 tỷ		4 phòng	3 phòng	Đầy đủ.	Sổ đỏ/ Sổ hồng.	20.9884953433155	105.856648606124	Đường Hoàng Mai, Phường Hoàng Văn Thụ, Hoàng Mai, Hà Nội	Hoàng Mai	Hà Nội
Căn hộ chung cư tại D’. Le Roi Soleil	pr31643369	110 m²		11 tỷ		3 phòng	2 phòng			21.0658321380615	105.826507568359	D’. Le Roi Soleil , 59, Đường Xuân Diệu, Phường Quảng An, Tây Hồ, Hà Nội	Tây Hồ	Hà Nội
Nhà riêng tại đường Vân Canh	pr41622763	45 m²	3,5 m	10,5 tỷ	Bắc	3 phòng	4 phòng	Đầy đủ	Sổ đỏ/ Sổ hồng	21.0355785176093	105.732684762704	Đường Vân Canh, Xã Vân Canh, Hoài Đức, Hà Nội	Hoài Đức	Hà Nội
Nhà biệt thự, liền kề tại Khu đô thị Duyên Thái	pr42598235	84,6 m²	5 m	9,3 tỷ	Đông - Nam	4 phòng	4 phòng	Không nội thất	Sổ đỏ/ Sổ hồng	20.8980151586401	105.856471024454	Khu đô thị Duyên Thái, Xã Duyên Thái, Thường Tín, Hà Nội	Thường Tín	Hà Nội
Nhà riêng tại đường Định Công Thượng	pr42645499	40 m²	3,8 m	7,5 tỷ		4 phòng	4 phòng	Đầy đủ	Sổ đỏ/ Sổ hồng	20.982717439904	105.821226278595	Đường Định Công Thượng, Phường Hoàng Liệt, Hoàng Mai, Hà Nội	Hoàng Mai	Hà Nội
Nhà biệt thự, liền kề tại Khu nhà ở xã Tân Lập - Cienco 5	pr42620689	75 m²	5 m	11 tỷ		4 phòng	4 phòng		Sổ đỏ/ Sổ hồng	21.073096463105433	105.71363602332833	Dự án Tân Lập Cienco 5, Đường 422, Xã Tân Lập, Đan Phượng, Hà Nội	Đan Phượng	Hà Nội
Bán đất tại đường Nguyễn Thời Trung	pr41699377	85 m²	5 m	13,8 tỷ					Sổ đỏ/ Sổ hồng.	21.0281530548333	105.918070501989	Đường Nguyễn Thời Trung, Phường Thạch Bàn, Long Biên, Hà Nội	Long Biên	Hà Nội
Nhà riêng tại phường Bồ Đề	pr42653028	80 m²	5 m	19 tỷ					Sổ đỏ/ Sổ hồng	21.0384134745139	105.872661236383	Bồ Đề, Long Biên, Hà Nội	Long Biên	Hà Nội
Nhà riêng tại phố Ngọc Khánh	pr42609139	110 m²	6 m	25 tỷ		7 phòng		Đầy đủ	Sổ đỏ/ Sổ hồng	21.0289187505266	105.81264120757	Phố Ngọc Khánh, Phường Ngọc Khánh, Ba Đình, Hà Nội	Ba Đình	Hà Nội
Bán đất tại phố Trần Bình	pr42597116	70 m²	4 m	11,9 tỷ					Sổ đỏ/ Sổ hồng	21.0356552061151	105.778356287259	Phố Trần Bình, Phường Mai Dịch, Cầu Giấy, Hà Nội	Cầu Giấy	Hà Nội
Nhà riêng tại đường Hoàng Quốc Việt	pr41736567	48 m²	4,5 m	18 tỷ		5 phòng	3 phòng		Sổ đỏ/ Sổ hồng.	21.046298970364	105.79928069416	Đường Hoàng Quốc Việt, Phường Nghĩa Đô, Cầu Giấy, Hà Nội	Cầu Giấy	Hà Nội
Nhà riêng tại phố Trần Quốc Hoàn	pr42653412	60 m²	4,1 m	18,5 tỷ		4 phòng	3 phòng	Cơ bản	Sổ đỏ/ Sổ hồng	21.041583503417	105.78610438485	Phố Trần Quốc Hoàn, Phường Dịch Vọng Hậu, Cầu Giấy, Hà Nội	Cầu Giấy	Hà Nội
Nhà riêng tại phường Thanh Xuân Bắc	pr42110746	60 m²		15,5 tỷ						20.9935217506651	105.798176170113	Phường Thanh Xuân Bắc, Thanh Xuân, Hà Nội	Thanh Xuân	Hà Nội
Nhà mặt phố tại phố Lý Thường Kiệt	pr42648589	98 m²	4,5 m	18,9 tỷ				Đầy đủ	Sổ đỏ/ Sổ hồng	20.959855758266	105.765259765349	Phố Lý Thường Kiệt, Phường Phú La, Hà Đông, Hà Nội	Hà Đông	Hà Nội
Nhà mặt phố tại phố Nguyễn Ngọc Vũ	pr42656175	72,25 m²		11,25 tỷ		6 phòng	6 phòng	Đầy đủ	Sổ đỏ/ Sổ hồng	21.0118391101884	105.808400668593	Phố Nguyễn Ngọc Vũ, Phường Trung Hòa, Cầu Giấy, Hà Nội	Cầu Giấy	Hà Nội
Bán đất tại đường Đồng Ông	pr42514780	54 m²	4,06 m	140 triệu/m²	Đông - Nam				Sổ đỏ/ Sổ hồng	21.095906165112	105.666192468021	Đường Đồng Ông, Xã Đan Phượng, Đan Phượng, Hà Nội	Đan Phượng	Hà Nội
Nhà riêng tại đường Yên Phúc	pr42630878	90 m²	6,1 m	19,8 tỷ		26 phòng	26 phòng	Đầy đủ	Sổ đỏ/ Sổ hồng	20.9703974621698	105.786840780498	Đường Yên Phúc, Phường Văn Quán, Hà Đông, Hà Nội	Hà Đông	Hà Nội
Nhà mặt phố tại đường Kim Giang	pr39893551	79 m²		21,99 tỷ		5 phòng	4 phòng		Sổ đỏ/ Sổ hồng.	20.9791213	105.8210801	Đường Kim Giang, Phường Đại Kim, Hoàng Mai, Hà Nội	Hoàng Mai	Hà Nội
Nhà mặt phố tại đường Lạc Long Quân	pr42602051	58 m²	5 m	21,5 tỷ		7 phòng	7 phòng	Đầy đủ	Sổ đỏ/ Sổ hồng	21.05352554284	105.809171239045	Đường Lạc Long Quân, Phường Nghĩa Đô, Cầu Giấy, Hà Nội	Cầu Giấy	Hà Nội
Chung cư mini, căn hộ dịch vụ tại phường Khương Trung	pr42652586	52 m²		12,9 tỷ		8 phòng		Đầy đủ	Sổ đỏ/ Sổ hồng	20.9961160040701	105.822582249285	Phường Khương Trung, Thanh Xuân, Hà Nội	Thanh Xuân	Hà Nội
Nhà mặt phố tại đường An Lạc	pr42207575	48 m²	4 m	8,2 tỷ				Đầy đủ	Sổ đỏ/ Sổ hồng	21.0168948266554	105.92579201879	Đường An Lạc, Thị trấn Trâu Quỳ, Gia Lâm, Hà Nội	Gia Lâm	Hà Nội
Nhà riêng tại đường Mỹ Đình	pr41855364	40 m²	3,57 m	7,5 tỷ	Đông	1 phòng	1 phòng	Đầy đủ	Sổ đỏ/ Sổ hồng	21.0274953405912	105.774342266552	Ngõ 20, đường Mỹ Đình, Phường Mỹ Đình 2, Nam Từ Liêm, Hà Nội	Nam Từ Liêm	Hà Nội
Căn hộ chung cư tại D’. Le Roi Soleil	pr38835201	146 m²		10 tỷ		3 phòng	2 phòng	Full Nội thất cao cấp	Sổ đỏ/ Sổ hồng	21.0658321380615	105.826507568359	Dự án D’. Le Roi Soleil , Đường Xuân Diệu, Phường Quảng An, Tây Hồ, Hà Nội	Tây Hồ	Hà Nội
Nhà riêng tại phố Phương Liệt	pr42590577	90 m²	5 m	26,2 tỷ		24 phòng	24 phòng	Đầy đủ	Sổ đỏ/ Sổ hồng	20.996405806937	105.842537921632	Phố Phương Liệt, Phường Phương Liệt, Thanh Xuân, Hà Nội	Thanh Xuân	Hà Nội
Nhà riêng tại phố Ngụy Như Kon Tum	pr41997569	76 m²		27,5 tỷ					Sổ đỏ/ Sổ hồng	20.9994217515146	105.800954964273	Phố Ngụy Như Kon Tum, Phường Thanh Xuân Trung, Thanh Xuân, Hà Nội	Thanh Xuân	Hà Nội
Nhà biệt thự, liền kề tại Đông Dương Residence	pr42517203	80 m²	5 m	13 tỷ	Đông - Bắc				Hợp đồng mua bán	21.0782347614113	105.69026394681	Đông Dương Residence, Đường Quốc lộ 32, Xã Đức Thượng, Hoài Đức, Hà Nội.	Hoài Đức	Hà Nội
Đất nền dự án tại Khu đô thị Thanh Hà Mường Thanh	pr42651224	81 m²	5 m	9,5 tỷ					Sổ đỏ/ Sổ hồng	20.93965516355413	105.7871759219195	Thanh Hà Mường Thanh, Phường Kiến Hưng, Hà Đông, Hà Nội	Hà Đông	Hà Nội
Căn hộ chung cư tại Khu đô thị Nam Thăng Long - Ciputra	pr39748921	119 m²		7,4 tỷ	Đông - Nam	3 phòng	2 phòng	Đầy đủ	Sổ đỏ/ Sổ hồng	21.072135925293	105.810997009277	Dự án Ciputra Hà Nội, Đường Lạc Long Quân, Phường Phú Thượng, Tây Hồ, Hà Nội	Tây Hồ	Hà Nội
Nhà biệt thự, liền kề tại Xanh Villas	pr39416640	258 m²	11 m	14 tỷ	Nam	5 phòng	4 phòng			20.9901828765869	105.499954223633	Dự án Xanh Villas, Đường Đại lộ Thăng Long, Xã Tiến Xuân, Thạch Thất, Hà Nội	Thạch Thất	Hà Nội
Nhà riêng tại đường Quang Trung	pr42619638	35 m²		7,69 tỷ		3 phòng	4 phòng	Cơ bản	Sổ đỏ/ Sổ hồng	20.9559585184081	105.765988857199	Đường Quang Trung, Phường Phú La, Hà Đông, Hà Nội	Hà Đông	Hà Nội
Nhà riêng tại đường Láng	pr41630386	70 m²		12 tỷ		10 phòng		Full	Sổ đỏ/ Sổ hồng	21.0041644830683	105.818273534345	Đường Láng, Phường Ngã Tư Sở, Đống Đa, Hà Nội	Đống Đa	Hà Nội
Bán đất tại đường Vũ Lăng	pr42656983	123 m²	7 m	23 tỷ	Đông - Bắc				Sổ đỏ/ Sổ hồng	20.9341531211538	105.851527199538	Đường Vũ Lăng, Xã Tứ Hiệp, Thanh Trì, Hà Nội	Thanh Trì	Hà Nội
Nhà mặt phố tại đường Quang Lãm	pr41011473	36 m²	5 m	7,25 tỷ		4 phòng	3 phòng	Đầy đủ	Sổ đỏ/ Sổ hồng	20.944996629139187	105.75719800649166	Đường Quang Lãm, Phường Phú Lãm, Hà Đông, Hà Nội	Hà Đông	Hà Nội
Nhà biệt thự, liền kề tại An Lạc Green Symphony	pr42491381	80 m²	5 m	18,5 tỷ	Đông - Nam	4 phòng	4 phòng		Hợp đồng mua bán	21.033290135932955	105.73203645159977	Dự án An Lạc Green Symphony, Xã Vân Canh, Hoài Đức, Hà Nội	Hoài Đức	Hà Nội
Nhà riêng tại đường Trần Thái Tông	pr42655002	38 m²	3,8 m	8,5 tỷ		6 phòng	5 phòng	Đầy đủ	Sổ đỏ/ Sổ hồng	21.0317479214015	105.788607779888	Đường Trần Thái Tông, Phường Dịch Vọng, Cầu Giấy, Hà Nội	Cầu Giấy	Hà Nội
Bán đất tại đường Hoàng Tăng Bí	pr42652770	160 m²	10 m	14,57 tỷ					Sổ đỏ/ Sổ hồng	21.0834711968409	105.774961908621	Đường Hoàng Tăng Bí, Phường Thụy Phương, Bắc Từ Liêm, Hà Nội	Bắc Từ Liêm	Hà Nội
Nhà riêng tại đường Đông Tác	pr42624479	48 m²	5 m	11 tỷ		14 phòng	13 phòng	Đầy đủ	Sổ đỏ/ Sổ hồng	21.0049829606544	105.833463735873	Đường Đông Tác, Phường Kim Liên, Đống Đa, Hà Nội	Đống Đa	Hà Nội
Nhà mặt phố tại phố Lý Thường Kiệt	pr42586961	40 m²	4 m	13,8 tỷ	Tây - Bắc			Đầy đủ	Sổ đỏ/ Sổ hồng	20.966069822196	105.770941478036	Phố Lý Thường Kiệt, Phường Quang Trung, Hà Đông, Hà Nội	Hà Đông	Hà Nội
Nhà riêng tại đường Tam Khương	pr42611088	46 m²	4,1 m	15,3 tỷ		6 phòng	4 phòng	Đầy đủ	Sổ đỏ/ Sổ hồng	21.0043752107896	105.828179186007	Đường Tam Khương, Phường Khương Thượng, Đống Đa, Hà Nội	Đống Đa	Hà Nội
Nhà riêng tại phố Thái Hà	pr42635151	94 m²	4,5 m	24,5 tỷ		5 phòng	4 phòng	Đầy đủ	Sổ đỏ/ Sổ hồng	21.0123429055465	105.819908132426	Phố Thái Hà, Phường Trung Liệt, Đống Đa, Hà Nội	Đống Đa	Hà Nội
Nhà riêng tại đường Vũ Trọng Khánh	pr42631247	76 m²	5 m	10,9 tỷ		6 phòng	6 phòng		Sổ đỏ/ Sổ hồng	20.9832017910244	105.782775265245	Đường Vũ Trọng Khánh, Phường Mỗ Lao, Hà Đông, Hà Nội	Hà Đông	Hà Nội
Nhà riêng tại đường Kim Giang	pr42095061	65 m²		8,5 tỷ					Sổ đỏ/ Sổ hồng.	20.9790230873503	105.821419874476	Đường Kim Giang, Phường Đại Kim, Hoàng Mai, Hà Nội	Hoàng Mai	Hà Nội
Nhà riêng tại đường Nguyễn Văn Linh	pr42350821	88 m²	5 m	13,5 tỷ					Sổ đỏ/ Sổ hồng	21.0278299952183	105.92008741758	Ngõ 68, Đường Nguyễn Văn Linh, Phường Thạch Bàn, Long Biên, Hà Nội	Long Biên	Hà Nội
Nhà riêng tại đường Mỹ Đình	pr42501305	55 m²	5 m	12,5 tỷ		12 phòng	12 phòng	Đầy đủ	Sổ đỏ/ Sổ hồng	21.0235906525531	105.774234178765	đường Mỹ Đình, Phường Mỹ Đình 1, Nam Từ Liêm, Hà Nội	Nam Từ Liêm	Hà Nội
Bán đất tại xã Tân Xã	pr42646162	100 m²	5 m	160 triệu/m²					Sổ đỏ/ Sổ hồng	21.0213243583665	105.551117430275	Xã Tân Xã, Thạch Thất, Hà Nội	Thạch Thất	Hà Nội
Nhà riêng tại đường Trúc Bạch	pr42590966	90 m²	4 m	15,5 tỷ		4 phòng	5 phòng	Đầy đủ	Sổ đỏ/ Sổ hồng	21.0478485140757	105.841723946536	Đường Trúc Bạch, Phường Trúc Bạch, Ba Đình, Hà Nội	Ba Đình	Hà Nội
Nhà riêng tại đường Hoàng Văn Thái	pr42583970	60 m²	4,5 m	14,6 tỷ	Tây - Bắc	4 phòng	4 phòng		Sổ đỏ/ Sổ hồng	20.9965696113926	105.824600817237	Đường Hoàng Văn Thái, Phường Khương Trung, Thanh Xuân, Hà Nội	Thanh Xuân	Hà Nội
Nhà riêng tại đường Đình Thôn	pr42616648	108 m²		30 tỷ	Nam	16 phòng	16 phòng	Đầy đủ	Sổ đỏ/ Sổ hồng	21.0230824006805	105.779081103214	Đường Đình Thôn, Phường Mỹ Đình 2, Nam Từ Liêm, Hà Nội	Nam Từ Liêm	Hà Nội
Nhà riêng tại đường Tô Hiệu	pr42584344	50 m²	4 m	9,9 tỷ		4 phòng	5 phòng	Đầy đủ	Sổ đỏ/ Sổ hồng	20.9663569	105.7769556	Đường Tô Hiệu, Phường Hà Cầu, Hà Đông, Hà Nội	Hà Đông	Hà Nội
Căn hộ chung cư tại Khu đô thị Trung Hòa - Nhân Chính	pr42604291	155 m²		10,2 tỷ		3 phòng	2 phòng	Full nội thất cao cấp.	Sổ đỏ/ Sổ hồng	21.008465461286985	105.80289928302314	Dự án Trung Hòa Nhân Chính, Phố Hoàng Đạo Thúy, Phường Trung Hòa, Cầu Giấy, Hà Nội	Cầu Giấy	Hà Nội
Bán đất tại phường Kiến Hưng	pr42608561	54 m²		10,8 tỷ					Sổ đỏ/ Sổ hồng	20.9549056280326	105.790307698038	Phường Kiến Hưng, Hà Đông, Hà Nội	Hà Đông	Hà Nội
Nhà riêng tại phường Phương Canh	pr42580934	47 m²	4 m	7,97 tỷ	Đông - Bắc	4 phòng	5 phòng	Đầy đủ	Sổ đỏ/ Sổ hồng	21.042450881839	105.737098954973	Phường Phương Canh, Nam Từ Liêm, Hà Nội	Nam Từ Liêm	Hà Nội
